POI_ID,NAME,LAT,LON
1141833660,Pearl Clinic,9.06058,7.4031
1142403516,Temmy and Eny Partners,9.08109,7.5172
1136370116,Zenith Bank,9.07921,7.4628
1096546327,Develyn Place,9.05166,7.46548
1141833723,Abia State Governor's Lodge,9.03321,7.522
1136370664,Pizzarama Takeaway,9.08396,7.47019
1202896929,Spring Bank,9.02831,7.58253
1141799855,Atlas Micro Finance Bank,9.10155,7.27813
1141790677,Same Global Housing Estate,8.97007,7.43928
1136371150,Nkoyo Restaurant & Bar,9.07927,7.46228
1141806638,Zoeys Restaurant,9.08239,7.49459
1136369622,Ritemed Pharmacy,9.07573,7.47811
1141803854,Glory Plaza,9.07212,7.48443
1144442470,Kingville College,9.09491,7.41471
1048160423,Asd Motor,9.03814,7.48147
1141822234,Vista Garnier,9.0237,7.47596
1141806685,Area Two Shopping Center,9.0359,7.47782
1203121733,Julius Berger Life Camp,9.07831,7.39197
1058644887,Sisters of the Nativity Hospital,8.98568,7.56488
1203197659,Cook,9.02317,7.48443
1141802011,Mosque,9.00727,7.45773
1135252412,First Bank,9.02808,7.5813
1135252413,First Bank,9.02808,7.5813
1141829375,Succor Africa,9.065,7.44123
1144659640,All Saints Nursey and Primary School,9.05939,7.47057
1144660568,Federal Ministries of Environment and Housing,9.08026,7.49281
1048158637,UBA,9.0787,7.49158
1148775691,Redeem Christian Church of God,9.06191,7.40339
1048158661,UBA,9.07286,7.47673
1048167862,Garki A3 Park,9.01895,7.49475
1203121729,Dona Kebab Restaurant,9.07822,7.41419
1083948582,Costbase,9.08049,7.49923
1141788195,Nico,9.06886,7.45017
1017603079,Wuse Guest Inn,9.06962,7.46402
1017601132,Embassy Romanian,9.03719,7.52674
1017594601,N. U. J Motel,9.04111,7.50197
1017592817,Garki Village Market,9.02153,7.48903
1017603647,Cross River,9.10175,7.48955
1017601281,Benue Plaza,9.06507,7.49306
1017601403,Titos Supermarket,9.05503,7.46137
1017593220,Embassy Guinea,9.03635,7.46462
1017605292,Tantalizers,9.03628,7.48035
1017590692,Zamfara State Liaison Office,9.09238,7.48896
1017591731,Molarex,9.05549,7.46303
1017593814,Embassy Switzerland,9.03789,7.5291
1017601780,Ekiti State Liaison Office,9.06154,7.48415
1017590667,Vulcano,9.06857,7.47141
1017589970,Poly Clinic,9.07728,7.47987
1017606354,Benue State Liaison Office,9.05419,7.52765
1017606576,NP,9.04945,7.528
1017602842,School,9.06741,7.47242
1017590826,Garki Hospital,9.03239,7.48396
1017606388,Bio Royal Hospital & Maternity,9.03218,7.47554
1017605423,Abuja Church,9.06679,7.44141
1017598643,Nig. Breweries PLC,9.08092,7.48349
1017598912,Zenith Bank,9.07503,7.49725
1017599353,Park & Shop,9.08376,7.46987
1017606741,Top Rank Hotel,9.0394,7.50566
1017597163,Embassy Argentina,9.04823,7.52052
1017593322,Embassy USA,9.07997,7.51333
1017594233,Shopping Centre,9.07299,7.4761
1017603499,Mangel Plaza,9.04471,7.50231
1017591568,UBA,9.07873,7.45235
1017606574,Rodze,9.06627,7.46466
1017598009,Shop,9.06068,7.46892
1017593826,Broadway,9.02435,7.48821
1017602648,Padam Dam Park,9.059,7.52618
1017598059,Nitel Office,9.06835,7.48887
1017600388,Nwaora Plaza,9.07466,7.47258
1017591567,Smile Dental Practice,9.04398,7.51949
1017604391,N. Y. S. C. Office,9.02721,7.47459
1017604804,PHCN,9.09847,7.49872
1017590597,Blue Restaurant,9.09198,7.47921
1017591434,Monoliza Amusement Park,9.0493,7.504
1017593504,UBA,9.02811,7.47689
1017596404,Shopping Centre,9.07772,7.51222
1017597889,School,9.06236,7.47297
1017602914,Cachez,9.08282,7.46542
1017595485,Syndicate Plaza,9.04144,7.50336
1017592902,Abuja Church,9.07028,7.47447
1017606732,Abuja Church,9.01997,7.48055
1017604374,Agura Hotel,9.0395,7.48783
1017604111,NITEL Office,9.07569,7.47321
1017604786,Zone 6 Neighbourhood Park,9.06653,7.45815
1017597613,Prime Plaza,9.07622,7.48843
1017594111,911,9.0762,7.4989
1017605615,Mais Guest House,9.08789,7.49818
1017590781,NITEL Office,9.06782,7.46238
1017605483,Langfield Royalty Motel,9.04543,7.50343
1017605851,Mr Bigg's,9.0746,7.46556
1017590285,Ecobank,9.05988,7.4811
1017600088,PHCN,9.07595,7.48583
1017592135,PHCN,9.02763,7.47749
1017590687,City Supermarket,9.07823,7.46323
1017591178,Tunlay Hotel,9.06937,7.49033
1017598537,Abuja Mosque,9.08348,7.47164
1017590974,Shopping Centre,9.08266,7.46783
1017604928,PHCN,9.04672,7.51733
1017592222,Catholic Relief Services,9.083,7.47982
1017598992,Shopping Centre,9.07612,7.4897
1017602635,Embassy Benin,9.09345,7.49691
1017597124,Shopping Centre,9.01524,7.49039
1017590230,Zenith Bank,9.02337,7.48678
1017600726,Chop Chop,9.06405,7.48077
1017597686,Abuja Gardens,9.04012,7.46821
1017605343,African Safari Hotel,9.03202,7.46722
1017603009,Embassy Zambia,9.03664,7.46605
1017603200,Lemmingsway Stores,9.05196,7.47951
1017595610,Top Rank Hotel,9.03823,7.50614
1017591475,State Guest House,9.09307,7.49905
1017605263,Embassy Philippines,9.09224,7.50512
1017596501,Living Faith Church,9.01613,7.47254
1017597185,A. S. G Plaza,9.06951,7.48044
1017593639,Shopping Centre,9.03717,7.48442
1017603331,Grand Mirage Hotel,9.03943,7.50413
1017602020,Embassy Zimbabwe,9.08828,7.47523
1017596824,NP,9.0671,7.51186
1017594688,Mtel,9.0819,7.47134
1017592886,Abuja Church,9.08076,7.46668
1017600898,Govt. Sec. Sch,9.06531,7.47665
1017602956,Bank-Mko Abiola House,9.05277,7.49341
1017595960,Lake Chad Guest Palace,9.08971,7.50256
1017600024,Ifesinachi Motors,9.06958,7.45356
1017594764,Sami Wadata Clinic,9.08652,7.47135
1017590000,School,9.07224,7.45821
1017592862,Goodness Place,9.06602,7.45485
1017595158,Villa Hotel,9.03687,7.4821
1017606305,Maitama District Hospital,9.08513,7.48271
1017589982,Royal Habitat,9.05746,7.46369
1017599523,Bolingo Hotel and Towers,9.04479,7.48078
1017605184,Abuja Church,9.07406,7.45151
1017592283,Blue Plaza,9.07859,7.46774
1017592071,Russel Suites,9.06678,7.46977
1017603124,Maitama Guest House,9.09055,7.4951
1017593645,Ecobank,9.0221,7.48555
1017595439,Dantata & Sawoe,9.02765,7.50372
1017596059,Adamawa State Liaison Office,9.04033,7.52166
1017598417,Taraba State Liaison Office,9.05597,7.52548
1017594894,Chisco Transport Nigeria Limited,9.06588,7.441
1017599823,Recreation Castle,9.07727,7.49895
1017605443,School,9.07343,7.47539
1017595218,Abuja Church,9.09415,7.48462
1017600509,Recreation,9.06397,7.48538
1017605636,City View Restaurant & Grill,9.06483,7.47343
1017593650,GTBank,9.07081,7.47733
1017606750,Kantoma Resort,9.05574,7.46303
1017594654,School,9.06656,7.49213
1017594212,NP,9.02778,7.49958
1017599392,School,9.03832,7.52972
1017604106,Wuse Plaza,9.06658,7.46427
1017605813,Sky Memorial Complex,9.06502,7.45822
1017597143,Command Guest House,9.08373,7.51962
1017600177,Ahamadu Coomasie House,9.04755,7.48461
1017596967,M. T. N. HQ,9.0856,7.48876
1017590767,Rajab Plaza,9.02316,7.47479
1017594411,Abuja Mosque,9.02895,7.47184
1017599593,Abuja Church,9.06001,7.46399
1017599063,World Bank,9.04241,7.52466
1017603936,Sharon Ultimate,9.03128,7.48232
1017600548,Shopping Centre,9.0625,7.47869
1017602779,Amso Hotel,9.07207,7.45944
1017592861,Ecowas Secretariat,9.04233,7.52655
1017599271,Central Bank of Nigeria,9.03045,7.50118
1017601824,Shafa Shopping Complex,9.02228,7.47736
1017603274,Metcho Hotel,9.08185,7.46659
1017605471,School,9.1004,7.49268
1017605982,Utako Market,9.06634,7.44703
1017598508,Agape Motel Limited,9.07285,7.47
1017600235,V. S. O Nig.,9.07911,7.48665
1017594961,Leblon Clinic,9.07255,7.48641
1017604220,Marima Plaza,9.09471,7.48222
1017595442,Brifina,9.02035,7.47522
1017594328,School,9.07536,7.46635
1017605458,UBA,9.04379,7.52774
1017594883,MC Dowals,9.09072,7.49799
1017604969,GTBank,9.02907,7.47832
1017594183,Embassy Jamaica,9.04751,7.52703
1017596819,Arcade Club Suite,9.06818,7.49653
1017603740,Sokoto State Liaison Office,9.02961,7.49674
1017595314,British Council,9.0841,7.49123
1017592121,School,9.07979,7.45793
1017594293,Lafia,9.0354,7.48985
1017597271,Garki II Shopping Centre,9.03145,7.49703
1017604695,Embassy Indonesia,9.07677,7.50092
1017600255,Ritman Suites,9.03304,7.49025
1017598798,Supreme Court,9.06007,7.50803
1017606212,Embassy South Africa,9.10679,7.4882
1017595095,Total House,9.05297,7.48504
1017593044,Mangal Plaza,9.05276,7.46832
1017606733,Enugu State Liaison Office,9.04677,7.49539
1017599813,School,9.02185,7.49551
1017606529,Savannah Chum-Chum,9.05287,7.4675
1017603118,A. P Plaza,9.07271,7.47696
1017598893,Angels Plaza,9.0178,7.49363
1017602159,Embassy Ireland,9.09385,7.47772
1017605297,Embassy Tanzania,9.09343,7.49652
1017602293,Dannic Hotels,9.03391,7.47438
1017599754,O'Neals Restaurant,9.07849,7.48005
1017595767,NP,9.06376,7.47017
1017598739,Edo Line,9.0693,7.4526
1017599196,NP,9.04003,7.48717
1017606162,NP,9.03135,7.47116
1017605551,Euro Hospital,9.05437,7.46254
1017603573,PHCN,9.06703,7.45976
1017599504,Big Mama's Kitchen,9.06294,7.47655
1017602841,First Bank,9.04636,7.4843
1017605675,Abuja Church,9.06299,7.4433
1017603173,Embassy Poland,9.09078,7.50343
1136369613,Grand Regal International School,9.10069,7.4208
1048160940,Boulevard Park,9.10421,7.48685
1017601306,Action Aid,9.08257,7.47869
1141806014,Paradise,9.04384,7.52653
1141800883,Embassy Italian,9.09834,7.48707
1203197992,Choice,9.07141,7.48441
1141817671,Lara Babies Wears,9.06681,7.43049
1141794816,Mabuchi Hill Park,9.08454,7.46432
1096545202,Aso Savings & Loans,9.02854,7.49366
1141796368,Embassy Spain,9.08359,7.51306
1202896897,Oceanic Bank,9.02807,7.58128
1141827290,Acappella Nigeria,9.07424,7.47854
1096544889,National Orientation Agency,9.09552,7.41539
1048698079,Unity Bank,9.02956,7.47706
1141822235,Tetrazzini Chicken,9.05969,7.4669
1048158626,Zenith Bank,9.06064,7.49677
1048157602,Holy Trinity Hospital,9.03159,7.50251
1142403812,Fitness & Nutritional Health Services,9.07742,7.41644
1141796082,Clickislam. Com,9.05954,7.4719
1141792884,Ralpha Clinic and Maternity,9.1122,7.23429
1144464528,Glory of God Ministry,8.95638,7.54944
1142405771,Buyright Shop,8.98475,7.49399
1096545385,Elyte Guest Inn,9.03234,7.48048
1096542984,Abuja Mosque,9.0058,7.48374
1141808039,Societi Foods Industries Limited,9.03679,7.17578
1141800933,Dei Dei Police Post,9.10142,7.27733
1141797220,Access Bank,9.05632,7.52464
1083949717,Visafone Express,9.07634,7.4975
1136370578,Ikhlas Shopping Centre,9.11711,7.42026
1144496501,Glorious Destiny Academy,8.97677,7.56987
1141876199,Wonderland Amusement Park,9.04055,7.45127
1048699848,UBA,9.06651,7.49703
1096547137,Unity Bank,9.04977,7.48732
1113284599,Mr Bigg's,9.14504,7.33813
1141802018,Federal Ministry of Defence,9.00179,7.57379
1083947668,Bestway Luxury Suites,9.00019,7.48195
1017600699,Palmac Hotel,9.05131,7.5104
1203126144,TOTAL,9.03963,7.47222
1096545102,Mount Pleasant Mbora Estate,9.045,7.41164
1136369028,Frank's Wineyard,9.08086,7.39971
1017603314,D. F. I. D,9.07913,7.4992
1048698184,Mainstreet Bank,9.05028,7.48431
1141818233,Technoexportroy Nigeria Limited,9.07339,7.4036
1096543631,Ministry of Foreign Affairs Abuja,9.05842,7.49829
1131904268,Fortis Micro Finance Bank,9.07267,7.49002
1113284009,Godiya Plaza,8.99752,7.46681
1136368070,Steam Drycleaners,9.10201,7.40243
1141801532,N. E. P. A Office,9.07609,7.48569
1017596291,City Plaza,9.03206,7.4977
1136368338,Waxride Residence,9.07648,7.40371
1137271929,Kado Fish Market,9.06785,7.40157
1141819702,Embassy Togo,9.03114,7.52152
1130378223,Fortis Micro Finance Bank,9.07267,7.49002
1136369823,Blinkers Pharmacy,9.11752,7.40989
1141793933,Ecobank,9.04915,7.47474
1141802448,Kapital Hospital,9.07188,7.45337
1141797027,Ubss Group Limited,9.08499,7.47163
1048159810,ZM Plaza,9.03365,7.49728
1113283859,Chapel of Covenant Giants,9.00676,7.47269
1144498621,Lea Primary School Guduwa,9.04215,7.57573
1144499615,Federal Treasury Academy,8.89273,7.57725
1113276691,Vitafoam,9.14219,7.35062
1203197666,Alpha Zone Eye Clinic,9.01811,7.49037
1141874501,Gem Bible Institute,9.08264,7.44534
1048158922,Patted Marble Plaza,9.03446,7.49779
1144664293,Steping Stone Montessori International,9.02381,7.58503
1141801174,Core Quest,9.03055,7.48509
1048157528,First Bank,9.04426,7.47961
1083948478,Togolese Embassy,9.0911,7.50416
1024195614,NNPC Towers 1,9.05433,7.48439
1203198041,Shopping Centre,9.03801,7.48145
1136367526,Institute for Legislative Studies,9.10099,7.49681
1113315952,Mama's Kitchen,9.00276,7.5724
1141808030,Divine Suite,9.02429,7.58084
1113314742,Messan Clinic,8.98484,7.36267
1136368435,First Place Supermarket,9.09919,7.41061
1142407316,Seraph Medical Practice,9.06152,7.40219
1048158048,Wesley Clinics,9.06377,7.47016
1144445478,Ballis School,9.08165,7.47729
1141833658,Building Blocks Montessori Teacher Training,9.05861,7.40268
1130378302,Ecobank,9.02917,7.58586
1113284797,Pro Technologies,9.06339,7.4563
1113284227,Beida Nursery & Primary School,9.14999,7.33768
1141808217,Flexitime Microsystems Limited,9.08167,7.41354
1141805280,Victory Daycare Centre,9.00035,7.56072
1024419505,Aja Nwachukwu House,9.08229,7.48974
1048159454,National Youth Council of Nigeria,9.04069,7.49466
1141823394,Eventica Nigeria,9.08755,7.49595
1096543001,Estate,9.02773,7.49499
1141831674,Oas Gym,9.10449,7.40331
1048698081,Ecobank,9.06218,7.41759
1141874253,Naoc,9.05246,7.48294
1147064126,Citimini Restaurant,9.04067,7.50702
1136370559,Pridemark Hotel,9.03869,7.48155
1144504021,Light Way Academy School,9.07513,7.46483
1096543073,Adonis Pharmacy,9.07796,7.41389
1017597112,Ostra Guest House,9.04474,7.497
1096549048,City of Refuge Ophanage,9.0764,7.49971
1141794250,Qualitech,9.12347,7.37916
1141809352,Adult Dose Kitchen,9.008,7.45835
1144499611,Gudmeric Kiddies Institute,8.94608,7.54389
1113284356,Tian Plaza,9.06829,7.43755
1136368075,Sterling Bank,9.07747,7.41282
1113280882,Ecobank,9.02897,7.5687
1141798448,Nsitf Shopping Plaza,9.0718,7.46502
1203121754,Mambila Hotel,9.07206,7.46185
1141796332,Afam Ntri Consulting,9.03454,7.49759
1096543731,Gil Supermarket,9.06615,7.43338
1141797934,Zenith Computer,9.00431,7.47887
1144447897,Dynamic Academy,9.14802,7.34259
1048930776,Kingdom Hall Mpape,9.10808,7.50018
1141832301,Aso Guest Inn,9.01857,7.49158
1142406224,Fabulous Makeovers,9.05142,7.48359
1136368434,G Lounge,9.09922,7.41055
1048163564,Nigerian Stock Exchange,9.05177,7.48581
1048159696,State House Clinic,9.0873,7.52044
1096543602,411 Plaza,9.0721,7.4893
1083949734,Mediterranean Recreation Club Park,9.03884,7.52689
1203197708,Government Day and Junior Secondary School,9.07273,7.40126
1048696863,Skye Bank,9.04576,7.52721
1141790395,Samto Hospital,9.00164,7.57123
1096543231,Maxi Pharmacy,9.10754,7.40412
1144498299,Iddo Sarki Primary School,8.987,7.21021
1017597614,Mr Bigg's,9.02311,7.488
1048696229,Zenith Bank,9.06318,7.47756
1048696230,Skye Bank,9.0722,7.4331
1048696261,Mainstreet Bank,9.04819,7.52572
1048696268,Mainstreet Bank,9.03804,7.48402
1048696411,Ecobank,9.05177,7.48581
1048696412,Skye Bank,9.05246,7.48537
1048696477,Sterling Bank,9.07217,7.46602
1048696481,Fidelity Bank,9.04356,7.50323
1048696496,Access Bank,9.0305,7.48021
1048696528,First Bank,9.04427,7.47962
1048696862,First Bank,9.04522,7.52714
1048697031,CfC Stanbic Bank,9.03446,7.49778
1048697064,UBA,9.07287,7.47672
1048697065,GTBank,9.07938,7.46294
1048163373,Sharif Plaza,9.08274,7.46797
1136367922,Oando,9.10906,7.41715
1136369791,Amafrikana Restaurant,9.06601,7.39563
1113280878,Pinnacle Academy,9.14517,7.3266
1141885180,Chief of Galadimawa Palace,8.99347,7.42627
1083949708,Queenfem,9.07559,7.46421
1144661891,Horizon International Children School,9.09104,7.41359
1203126173,Emmy Restaurant,9.07412,7.44939
1113276688,Donlee Club,9.14234,7.35037
1141790049,Embassy Egypt,9.09877,7.4846
1048158080,Jorany Restaurant,9.07845,7.47942
1203198027,Cowbell Plaza,9.14397,7.3165
1113317208,St Peter School,9.00892,7.56807
1048158369,Platinum Bank,9.05481,7.49154
1141870362,Vanuci Consult,9.03527,7.38561
1136370568,New Fcta Cemetery,9.09587,7.41665
1148774968,World Class Air Transport Limited,9.02352,7.46156
1141808028,Matoyeh Global,9.02757,7.57854
1141801801,Enugu,9.0467,7.49441
1141801898,Perfecta Shoes,9.07461,7.45891
1141801923,I Green Solutions,9.10724,7.48358
1141801978,AB Plaza,9.01042,7.58316
1141801979,Primary Health Cate Centre,8.88435,7.23086
1141801985,Zima Weavon Gallery and Accessories,9.00347,7.45639
1141801987,Socu Hospital,8.8951,7.57907
1141801988,African Food Restaurant,8.93431,7.5505
1141802000,Royal Medical Centre,9.01081,7.57387
1141802003,Tenth-J Nigeria Limited,9.00533,7.45531
1141802004,Prince & Princess Shopping Centre,9.00112,7.45429
1141802005,School Hotel,8.90494,7.5669
1141802006,Albama Clinic Limited.,9.00432,7.58
1141802007,Maryam House,8.87967,7.23107
1141802009,Arinsco Showers Nigeria,8.9316,7.55238
1141802023,Karu Health Centre,9.00916,7.57889
1141802024,EU-Prime Clinic,8.94796,7.54737
1141802284,Bar 21 Fish Bar,9.10264,7.4186
1141802320,City Capital Hotel,9.06944,7.47706
1141802339,Trudance Art,9.11163,7.41464
1141802355,Hello Kidz & Mum,9.06613,7.4382
1141802457,Ekklisiyar Yan'Uwa,9.0741,7.4515
1141802495,Katempe Estate Phase I,9.11743,7.45529
1141802503,Majem Cooperation,8.9852,7.56477
1141802517,Mabees Plaza,9.06592,7.48073
1141802525,Halbiz Complex,9.04553,7.50255
1141802708,B Natural,9.08613,7.4884
1141802751,Optimum Media Production,9.02745,7.48351
1141802866,Monavic Shopping Complex,9.01437,7.5636
1141802868,Daycare Kindergaten School,9.11356,7.42352
1141802875,Peace Court Estate,8.96854,7.46456
1141802903,Covenant Estate,8.97612,7.48594
1141802992,Central Bank of Nigeria Quarters,9.02223,7.48141
1141803100,Chinese Express,9.08333,7.46919
1141803109,Jinkande Nigeria Limited,9.05403,7.46768
1141803127,River Plaza,9.04746,7.47449
1141803247,Fototeck,9.03174,7.48275
1141803607,Abm Plaza,9.06751,7.43882
1141803617,FCMB,9.04064,7.50561
1141803629,Cocos Mix Cakes,9.07151,7.47986
1141803640,National Human Rights Commission,9.07229,7.48112
1141803645,Embassy the Republic Egypt,9.08024,7.50944
1141803937,Abuja Clinics,9.08013,7.51161
1141803952,Dukeology Lawz,9.09441,7.41563
1141803955,Footstep,9.09296,7.41477
1141803995,Ufuk Dialogue Foundation,9.08971,7.47781
1141804007,Peace Guest House,9.0187,7.49141
1141804015,Public Complaints Council,9.08225,7.49012
1141804020,Dunes,9.08431,7.48501
1141804035,GTBank,9.08155,7.4912
1141804087,Embassy Venezuela,9.03509,7.51601
1141804099,Las Vegas,9.04923,7.4571
1141804102,New Life Garden,9.02716,7.5857
1141804103,Dedeck Hotel,9.0271,7.58575
1141804226,Abuja Airport Hotel and Inn,8.98495,7.36776
1141804231,Paradise Guest House,8.98709,7.36809
1141804232,Mr Biggs,8.98391,7.37212
1141804235,D & F Heritage Hospital,8.99252,7.3689
1141804236,Progany Guest House,8.984,7.37119
1141804238,Nigeria Turkish Nizamiye Hospital,9.05889,7.39069
1141804239,Food Giants,8.99033,7.36576
1141804241,Trinity Guest House,8.98945,7.3709
1141804242,Redeem Christian Church of God,8.98694,7.36599
1141804245,Grail Centre,8.98917,7.36619
1141804249,Premier Academy,8.98769,7.35477
1141804252,El Duniya Guest House,8.98405,7.36938
1141804254,Wisdom Clinic,8.9761,7.36388
1141804257,Christian Bookshop,8.97432,7.36357
1141804263,Ivon International Guest House,8.98536,7.37096
1141804265,Abisam Guest House,8.98988,7.36883
1141804266,Mosque,8.99363,7.37082
1141804269,New Covenant Church,8.99884,7.36128
1141804271,Ken Kiery Events,8.98681,7.36485
1141804272,Berger Senior Staff Quarters,9.03277,7.39652
1141804274,Ahmfatya Concept,8.98113,7.36342
1141804282,Bonama Audio Visual,9.07173,7.48446
1141804334,Damilon Hair Salon,9.09029,7.49371
1141804560,Galadima,9.12116,7.38589
1141804566,Apo Mall,9.00314,7.48064
1141804794,Klamidas Communications,9.02737,7.47936
1141804879,Gisallin Hair and Fashion,9.09868,7.4144
1141804890,Bridal Guest Inn,9.08609,7.41794
1141804921,Molarex,9.05549,7.46303
1141805029,African Kitchen and Restaurant,9.03179,7.47306
1141805103,Ekenedili Transportation Company,9.06249,7.45204
1141805172,Cornerstone Hospital,9.06247,7.47516
1141805254,Njiubacu Nigeria,9.04268,7.47168
1141805373,Real Estate-Property Management,9.06185,7.4699
1141805374,Famag Plaza,9.06081,7.46897
1141805543,Isede Rentals,9.14354,7.31596
1141805735,Vina,9.07114,7.48524
1141805854,Diplomat Garden,9.03194,7.46734
1141805897,Lagos State Govenment Lodge,9.03961,7.51626
1141805898,Ogun State Government Lodge,9.03907,7.51636
1141805899,Cross River State Government Lodge,9.04069,7.51572
1141805911,Federal Road Safety Commission,9.07048,7.46314
1141805912,Motorola Country,9.07087,7.46328
1141806059,Pasey Jays,9.07204,7.47505
1141806095,Embassy Chad,9.08156,7.51369
1141806135,Midland Clinic and Laboratory,9.01482,7.56334
1141806414,Blue Girl Empowerment Foundation,9.0419,7.51721
1141806420,Maitama Store,9.08834,7.49841
1141806452,M. T. N Nigeria,9.03836,7.50513
1141806612,Cross Rivers State Lodge,9.04124,7.51799
1141806623,Mammy Market,9.04654,7.53656
1141806658,Nigeria Immigration Service,9.02719,7.46866
1141806702,Fibre Travels & Tours,9.08731,7.47747
1141806703,Dantata Estate,9.08823,7.4782
1141806706,Embassy Syrian,9.09853,7.48749
1141806732,Western House,9.07816,7.50014
1141806777,Embassy the Syria Arab Republic,9.08046,7.51053
1141806848,Ecobank,9.01121,7.27591
1141806902,Sahad Supermarket,9.06591,7.47963
1141806971,M Saleh and Company Limited,9.05403,7.47476
1141806973,Ebonyi State Government Lodge,9.10362,7.49731
1141806987,Kob Insurance Brokers Limited,9.05014,7.51507
1141807000,Digital Concept,9.0534,7.48476
1141807019,Federal Scholarship Board,9.07356,7.45412
1141807028,Ekiti State Governor's Lodge,9.06522,7.49579
1141807044,Sectraco Quarters,9.07224,7.40432
1141807100,Embassy Swedish,9.03505,7.51597
1141807142,Nacrbd House,9.04787,7.48515
1141807221,Diemco Nigeria Limited,9.07006,7.45044
1141807257,H and S International,9.05958,7.45667
1141807267,Well Point Clinic Limited,9.11557,7.41123
1141807326,Vita Foam,9.02407,7.48766
1141807469,Agape,9.07265,7.46947
1141807481,Passmark Construction Limited,9.08184,7.47359
1141807504,Inwade House,9.02851,7.48749
1141807609,GTBank,9.06845,7.42877
1141807650,Federal Ministry of Women Affairs,9.05137,7.508
1141807656,Nicon Staff Quarters,9.06387,7.47526
1141807714,International Peace Park,9.04189,7.49413
1141807728,Plateau State Govenors Lodge,9.03789,7.51697
1141807729,Oyo State Lodge,9.03775,7.51715
1141807732,Bauchi State Government Lodge,9.03757,7.51745
1141807794,Icon Eye Clinic,9.02474,7.47141
1141807795,Interweb Communication,9.07302,7.47575
1141807829,KPMG Company,9.04456,7.51894
1141807878,NBC Headquarters,9.05709,7.51368
1141807922,City Hospital and Maternity,9.06452,7.45919
1141807933,Kolstaf Medical Centre,9.07289,7.46771
1141807984,Passion Counseling,9.08479,7.48365
1141808009,Unity Foundation Abuja,9.07292,7.49655
1141808015,Chenbian Plaza,9.09518,7.21797
1141808026,Midland Clinic,9.01304,7.56036
1141808033,The Hub Hotel,9.01496,7.5641
1141808034,Boldstep Intl School,9.01668,7.57641
1141808045,Symak Centre,9.01912,7.56034
1141808050,Arewa Clinics and Maternity,9.01395,7.56224
1141808051,Redeem Christian Church of God,9.01541,7.56527
1141808063,Color Me by Hannah,9.01818,7.4508
1141808068,Manyatu Cool Room,9.01981,7.58443
1141808087,Park View,9.05292,7.46525
1141808185,Nigeria Tourism Development,9.02466,7.4725
1141808228,Laropa Guest House,9.1039,7.42058
1141808257,Airtel,9.0507,7.50801
1141808291,The Mall,9.07754,7.49792
1141808333,Stitch by Ish,9.01689,7.49004
1141808336,Embassy Ukraine,9.03711,7.52207
1141808367,TOYOTA,9.04078,7.50369
1141808368,Amira Bakery,9.0783,7.41456
1141808466,Seun Olokeogun & Associates,9.06656,7.42699
1141808476,Igi House,9.06498,7.47347
1141808495,Dixtel Communications Limited,9.05942,7.46433
1141808597,Andromedia Technologies Limited,9.07038,7.45295
1141808658,Abumet Nigerian Limited,9.07763,7.49987
1141808833,Gitto Construction Company,9.07313,7.50634
1141808847,Wesley Clinic,9.06306,7.4634
1141808944,Old Central Bank,9.02843,7.49866
1141808955,Lento Aluminium,9.06608,7.4091
1141809025,Madugu,9.06411,7.42019
1141809233,Topclass Generators Limited,9.07186,7.47185
1141809274,Double T Restaurant,8.88287,7.23034
1141809291,El Crystalmedia,9.01446,7.4769
1141809308,Iron Dealers Nigeria Limited,9.03124,7.58833
1141809324,Tarbiyah Books Plus,9.07287,7.48298
1141809354,Kaura Modern Market,9.0082,7.45853
1141809429,Fakad Concept Nigeria,9.13762,7.36657
1141809597,Edrug Pharmacy,8.99819,7.35061
1141809627,Supreme Clinic,9.00161,7.57002
1141809669,Legion of Naija Dancerz,9.05758,7.45901
1141809768,Embassy Botswana,9.09181,7.49428
1141810121,Megaslight Eye Clinic,9.06831,7.44882
1141810126,Harish Network Limited,9.07454,7.4975
1141810127,Jitai,9.07448,7.49915
1141810250,Oakland Centre,9.0847,7.48389
1141810280,Abuja Unity Hospital,8.98263,7.37155
1141810306,Borebbak Creations,9.07505,7.41648
1141810309,Machanic Workshop,8.95587,7.55083
1141810403,Rockview,9.07497,7.48789
1141810482,Multipurpose Auditorium,9.06669,7.44056
1141810485,Trem House,9.06677,7.44075
1141817793,Abuko Guest Inn,8.95629,7.5502
1141817804,Amac Market,8.99258,7.35428
1141817814,Gbemiro Guest Inn,9.11597,7.25689
1141817815,Moit Guest House,8.98584,7.36092
1141817817,Sports Field,8.88684,7.23374
1141817819,7up Bottling Company,9.03342,7.39658
1141817821,Deeper Life Bible Church,8.88227,7.2285
1141817822,Redeem Christian Church of God,8.98899,7.35986
1141817826,Loyola Jesuit College,8.91908,7.5651
1141817828,Perfects Steps School,9.0007,7.5643
1141817830,Arewa Clinc,9.01386,7.56203
1141817950,Sokoto State Government Lodge,9.04242,7.51626
1141818220,Citi Lodge,9.02548,7.47134
1141818223,New England Guest House,9.01717,7.49176
1141818497,Panic Alert Security System,9.10545,7.48783
1141818585,Kwara State Lodge,9.03874,7.51594
1141819073,Federal Ministry of Transportation,9.05578,7.48508
1141819631,Icon Nect Technologies,9.0917,7.4895
1141819648,Allied Building Complex,9.06328,7.42526
1141819839,JMC Daniels,9.047,7.52293
1141820435,Adsu Guest House,9.09608,7.41317
1141821017,Asg Shopping Complex,9.06978,7.47931
1141821023,Ronal Development Services,9.09076,7.41338
1141821143,Ministry of Defence Staff Quarters,9.06862,7.45978
1141821147,Hausba Smarthomes,9.06831,7.47384
1141821266,Nkwegwu Plaza,9.02303,7.47528
1141821449,Embassy China,9.04245,7.48079
1141821726,Games Village,9.017,7.44139
1141821802,Vanilla Factory,9.07929,7.50814
1141821905,Abumet,9.03444,7.39657
1141821949,Higher Ground Private School,8.9835,7.35708
1141822093,Bigdo Total Facility Services,9.00782,7.47277
1141822236,Multi-LEC,9.06308,7.46979
1141822238,Rochas Plaza,9.06073,7.46779
1141822402,Emma-Ella Pharmacy,9.06483,7.48699
1141822427,Emerald Court,9.00883,7.47164
1141822822,Meland Set,8.9398,7.31332
1141822823,Aso Savings and Loans,8.98256,7.56319
1141822825,Tantalizers,9.02776,7.58336
1141822827,Me Blink Pharmacy,9.03123,7.58974
1141822833,Big Global Hotel Limited,9.03135,7.58711
1141822834,Grace Jay Shopping Mall,9.14775,7.33425
1141822846,Daniel Suites,9.14509,7.33866
1141822850,AA Rano Fuel Station,9.02797,7.58071
1141822855,Prime Scholar School,8.99844,7.56926
1141822861,Semen Guest Inn,9.03117,7.58113
1141822902,Sheep Market,9.02176,7.56766
1141823382,NNPC Shopping Complex,9.04029,7.50039
1141823388,The Corporate University,9.03604,7.48749
1141823547,Embassy Republic of Cote'Devoir,9.09551,7.49715
1141823637,Mama Africa,9.06963,7.41021
1141823743,Sharon International Hotel,9.07086,7.46247
1141824450,Divine Touch Ict Solutions Limited,9.10071,7.41151
1141824801,Why 3 Days Concepts,9.08508,7.4986
1141824894,Embassy Brazilian,9.09195,7.48224
1141825141,Vetinary Council,9.07917,7.49092
1141825510,Neighbourhood Centre,9.02957,7.48084
1141825533,Glovicot Global Services,9.07393,7.44981
1141825714,Medicare Pharmacy,8.98761,7.36793
1141825715,Christian Embassy Church,8.98757,7.36808
1141825810,Wanpertech Engineering Nigeria,9.02487,7.45764
1141825816,Jenifa Plaza,9.05516,7.47946
1141826150,Yobe House,9.03768,7.50429
1141826718,Princess Spot,9.06504,7.47993
1141826768,Quailsplace,9.02701,7.56471
1141826923,Jima Petroleum,9.03034,7.49386
1141827094,Zanzibar Restaurant,9.04502,7.52666
1141827258,Hugo Medical Center,9.07652,7.49986
1141827379,Bryto-Soft Technology Limited,9.0682,7.47699
1141827392,Federal Road Safety Commission,9.05477,7.4561
1141828424,Neighbourhood Center,9.02959,7.48081
1141828754,Zinna Court,9.03496,7.52302
1141828766,Benny Rose Guest House,8.98972,7.3598
1141828768,First Hospital & Maternity,8.99952,7.56408
1141828770,Bubbles Royal Restaurant,8.94326,7.54903
1141828773,O'Tega Idadi,8.98578,7.36084
1141828846,Papel Image Tech Nigeria,9.06223,7.4836
1141828927,Kaycee Blossoms,9.07957,7.46714
1141829120,Area 2 Shopping Center,9.0323,7.47132
1141829243,Dan Idris Yinka Foundation,9.02002,7.49572
1141829354,Bennyrose Suites,9.07322,7.47061
1141829502,Konyetty Hotel,9.06198,7.44079
1141829603,Wise Choice Solutions,9.04922,7.48501
1141829901,B Square Ventures,9.03703,7.48893
1141829941,Embassy Lebanon,9.08885,7.50185
1141829981,Tymebox Resources,9.04821,7.49068
1141830068,Boboli Guest Inn,9.0341,7.48787
1141830089,First Bank,9.07718,7.46162
1141830150,Crown Agent Limited,9.06976,7.48306
1141830549,Embassy Saudi Arabia,9.04538,7.52568
1141830567,Reevamp Clothing Et Accessories,9.0607,7.40309
1141830605,Strataflex Nigeria Limited,9.07014,7.48583
1141830608,Art Gallery,9.08277,7.46831
1141830663,K-City Plaza,9.07926,7.46229
1141830891,Bo Nafagha & Co.,9.0651,7.4304
1141830914,Embassy Greece,9.07862,7.48428
1141831092,Yellow Page Search Nigeria,9.03729,7.47053
1141831103,Fomwan National Centre,9.06694,7.44349
1141831222,Emperor Chop Stick Cuisine,9.0803,7.46642
1141831226,Michael Akano and Co,9.03657,7.48322
1141831242,Beautiful Hands Events,9.09894,7.47802
1141831645,Gede Foundation,9.10326,7.49527
1141831670,De-Movers Guest Inn,9.03086,7.58972
1141831696,Zapeniel Welding Construction,9.06773,7.437
1141831712,Bencoast Nigeria Limited,9.06304,7.43837
1141831736,Vista Engineering Services Limited,9.0719,7.4402
1141831753,Naderm Pharmacy,9.11112,7.4043
1141832073,Maitama Amusement Park,9.08316,7.50161
1141832123,Movi Power Systems,9.01819,7.49229
1141832172,Somotex Nigeria Limited,9.07888,7.48102
1141832226,Crest Scan Services,9.00486,7.56331
1141832288,Ynet Interractive,9.06566,7.46132
1141832304,Spo Quarters,9.08899,7.47854
1141832344,Tehilah Solicitors & Advocates,9.09354,7.48209
1141832562,CJ Amasike and Associates,9.0438,7.52343
1141832592,Chelsea Hotel,9.05214,7.4798
1141832593,Legacy House,9.08631,7.48677
1141832601,FG Wilson,9.08283,7.46841
1141832783,Wisdom Plaza,9.10573,7.40292
1141832869,Fish for All Limited,9.08344,7.4195
1141832913,Arpon House,9.07052,7.43714
1141832963,Old Aprofim Quarters,9.07854,7.39069
1141833007,Ladela 2 Ventures Nigeria Limited,9.08679,7.50248
1141833088,Cloth Craft Limited,9.06941,7.40514
1141833145,Christy House,9.06741,7.46524
1141833240,American Safari,9.0914,7.47834
1141833267,Zaninab Estate,9.07497,7.43259
1141833439,Peniel Hotels,9.08106,7.48584
1141833449,Aso Delight Limited,9.09075,7.47308
1141833476,Farmily Health Clinic,9.03593,7.4782
1141833478,His Glory Plaza,9.07289,7.48435
1141833489,National Directorate of Employment,9.06907,7.46143
1141833575,Universal Stores,9.02123,7.4958
1141833651,Nasarawa State Lodge,9.03128,7.52158
1141833652,Abuja Plastic Surgery,9.0323,7.52188
1141833659,The Praxis Catholic E-School,9.05885,7.40276
1141833679,Neo Mundo Limited,9.07071,7.49028
1141833706,Emma-Ela Pharmacy Limited,9.06483,7.48699
1141833721,Jigawa State Governor's Lodge,9.03275,7.52198
1141833724,Osun State Governor's Lodge,9.03192,7.52178
1141833726,Asokoro Hospital,9.0331,7.52196
1141833727,Enugu State Lodge,9.0336,7.52193
1141833970,Royalton Suites,9.03879,7.47979
1141833997,Wasuhab Plaza,9.07325,7.47629
1141834076,Securities and Exchange Commission,9.05547,7.48034
1141868125,Ap Choice Plaza,9.02484,7.57332
1141868987,Uniblobe Hotel,9.00388,7.46524
1141869048,De-Silva House,9.10536,7.4245
1141869049,Runa Travels and Tours,9.10099,7.40329
1141869162,Rockview Annex,9.07428,7.48967
1141870811,Asokoro General Hospital,9.04602,7.52219
1141871121,Airport Guest Inn,8.8869,7.23647
1141871357,Jioke Properties,9.07511,7.49478
1141871454,Tomi's Kreation,9.09164,7.41392
1141871504,KFC,9.05318,7.47975
1141871710,Phone Clinic,8.96167,7.34703
1141872547,Professionals Online,9.06452,7.4844
1141872741,Bensima House,9.08525,7.48239
1141873591,Millennium,9.06536,7.45379
1141873926,Kabosa Market,8.94434,7.45472
1141873963,Venofam Pharmacy,9.01515,7.56542
1141874209,Impressive Imprints Media,9.02545,7.47177
1141874246,Enzyme House,9.09009,7.48274
1141874343,Council for Arts and Culture,9.0372,7.48505
1141874500,De Silva Guest House,9.10519,7.42572
1141875694,Viviretail Enterprise,9.05824,7.48474
1141875991,Luchi,9.06369,7.4414
1141876159,Wealth Boosters,9.10633,7.40553
1141876323,Solar and Inverter Dealers,9.02722,7.47466
1141877614,Sakaruyi's Palace,9.00587,7.57266
1141878580,Ministry of Defence,9.04812,7.50996
1141879139,Ogi F Integrated Resources Limited,9.05476,7.4641
1141881974,Internet Busines Marketing,9.01031,7.56456
1141881977,Crushed Rock Industries,9.07438,7.40641
1141882153,Kuye Housing Unit,8.9491,7.26208
1141882400,Lakeview Homes,9.08081,7.43103
1141883130,Bestway Luxury Suites,9.01967,7.49235
1141884605,Karchi Central Primary School,8.82935,7.56932
1141884669,Nexlum Roofing & Windows,9.06004,7.4176
1141884844,Nigeria Reinsurance Corporation,9.04675,7.48839
1141884888,D-Theo Collection,9.03466,7.40164
1141885170,Flopet Event Managers,9.02186,7.49214
1141885181,Villa Park Restaurant,8.99362,7.42514
1141885418,DPMD Nigeria,9.06927,7.40144
1141885591,Primary Health Care Center,9.11364,7.2377
1141885731,Bank Akomolafe & Co.,9.06153,7.42648
1141885846,Equitorial Garden Hotel,9.10032,7.47702
1141886054,A & A Technical Services,8.98785,7.36466
1141886055,Ecobank,9.00085,7.3686
1141886092,Mr-MRB-Believe,9.08875,7.42379
1141886258,Amac Plaza,9.05633,7.46596
1141886294,Solar and Inverters Dealers,9.02721,7.47459
1141886542,The Bike Shop,9.02124,7.46856
1141886707,National Bureau of Statistic,9.05409,7.48269
1141886735,Movida,9.14421,7.3305
1141886750,Lake View Estate,9.06708,7.42357
1141886824,CRS Nigeria,9.10908,7.48248
1141886872,Lorry Park-Mechanic Workshop,9.02949,7.58629
1141887067,P Martins Company,9.07938,7.47625
1141887098,Cooperation and Integration,9.04614,7.47535
1141887186,Yahuza Suya Spot,9.06357,7.48883
1141887247,Shekinah Cakes N Crafts,9.13748,7.35004
1141887361,Nysc Directorate Headquarters,9.08351,7.49266
1136368056,Healthtree Pharmacy & Stores,9.11008,7.4042
1017603386,Landmark Plaza,9.09275,7.50054
1136370269,Skye Bank,9.01262,7.27373
1144474985,Christian Faith Bible Church,9.14334,7.37779
1203197991,Learning Springs,9.08029,7.49999
1203126656,Southern Fried Chicken,9.07435,7.46588
1141831593,Mutual Alliance Savings and Loans,9.03612,7.48829
1203119404,Guest Room,9.07163,7.4817
1096547072,Grand Mirage Hotel,9.03983,7.50275
1142409425,Federal Min. of Works & Housing Staff Quarters,9.01576,7.55802
1083947696,Sky Memorial Complex,9.06508,7.45782
1048159220,Dr Hassan's Clinic & Diagnostic Center,9.08109,7.46367
1141817841,Ifdc Nigeria,9.10267,7.47882
1136369038,Wood Affairs Furniture Shop,9.07913,7.48666
1136367516,Corner Shop,9.11407,7.41031
1203121751,Anglican Guesthouse,9.05843,7.47097
1144495919,Unity International School,9.10661,7.40952
1096543085,Grundies Place,9.09823,7.41093
1203121701,Stta's Place,9.02288,7.48911
1096543171,Sky Memorial Complex,9.06636,7.45809
1017595834,Abuja Church,9.07293,7.48337
1144497250,Ibn Masdu Islamic School,8.88175,7.23553
1113315950,Govt Secondary School Karu,8.99354,7.56969
1137271444,D Perfect One Photographer Studio,9.06601,7.39563
1141788968,Water Board,9.04704,7.52037
1141801822,Empire Limited,9.09317,7.47648
1136370124,Maxcare Pharmacy,9.07062,7.48047
1141801699,Pated Marble,9.06225,7.47865
1136369816,Brakfast Cafe,9.07875,7.48012
1148822988,Living Word Ministries,9.10621,7.41428
1144476195,Family Worship Center Care Group,9.04105,7.52473
1024256926,Monument of the National Assembly,9.06674,7.50911
1048162347,Abuja Shopping Mall,9.06093,7.46913
1136370464,Tauba Hotel,9.07573,7.43957
1048168053,Nurul-Bayan International Academy,9.06395,7.45644
1048159093,Powa International,9.05045,7.50586
1141885782,Zulahatu Shopping Complex,9.14362,7.32355
1203121702,Hotel Oyus,9.01881,7.47912
1136367524,Cradle To Crayon School,9.08896,7.50382
1144473370,Catherine International Academy,9.13621,7.38315
1141831116,Manballa Hotel,9.0719,7.46205
1203115714,Abucoop Microfinance Bank,9.14815,7.32298
1048168401,Utc,9.03557,7.48538
1048159096,Surcon Office,9.0281,7.48628
1083949934,Hasal Microfinance Bank,9.06647,7.45708
1048163739,Uptown Asian Cuisine & Lounge,9.08202,7.47715
1113284868,Standard Care Clinic,8.98312,7.37529
1141789927,QH Plaza,9.09059,7.49445
1141802690,Peacock Creation,9.03545,7.48866
1202896531,Adunni Clothings,9.06063,7.4619
1119200178,Gilmor,9.07654,7.44328
1119200371,Glorystep International School,8.98215,7.36271
1141807005,Heritage House,9.05679,7.46549
1113281375,Church of God,8.87918,7.23673
1096543523,Islamic Society of Nigeria Abuja,9.07172,7.44329
1096543232,Gwarinpa Medical Laboratory,9.10772,7.40413
1141801537,Deji-Samoye Comm. Ent,9.07151,7.43371
1141802002,Abuja School for the Handicapped,8.88506,7.23529
1136371140,Focal Point Drycleaners,9.06999,7.48627
1141822840,Redeem Christian Church of God,9.10565,7.40293
1136367711,Golf Course,9.08936,7.40778
1142409530,Lanre Shittu Motors,9.07669,7.44395
1144498349,Rehoboth Comprehensive College,8.95827,7.40037
1141819078,Bavis House,9.0648,7.47108
1142404608,Dutse Alhaji Health Clinic & Maternity,9.14175,7.3724
1096545875,Mesdon Stone Roof Tiles,9.06259,7.42395
1141797169,Living Faith Church,9.03722,7.57587
1017591257,Rainbow Clinic,9.0096,7.47297
1136368351,Lifestyle Gymnasium,9.08866,7.50193
1096543453,St Mathew Church,9.09727,7.41712
1017605240,Bamcai Shopping Complex,9.06087,7.45517
1048698186,First Bank,9.08575,7.48934
1144498423,Merit Education Foundation,9.08024,7.30189
1144502440,Redeemed Christian Church of God,9.02666,7.58356
1141799749,Abba Jaiye Plaza,9.06767,7.46435
1202896737,First Inland Bank PLC,9.06414,7.4731
1141792880,Government Girl's Science Secondary School,8.88883,7.23714
1048163320,Wooden Tods School,9.06998,7.47469
1113315878,Ovena Superstore,9.1444,7.34653
1096547905,Afra Megah Dry Cleaners,9.1109,7.40426
1113284936,DHL,9.07496,7.47177
1048167374,Eterna Petrol Station,9.06747,7.43707
1142403389,Asokoro Lifestyle and Business Centre,9.04303,7.52975
1048161533,Excellence Plaza,9.10513,7.41727
1144463221,Kings and Queens School,9.00416,7.58311
1048167206,Jafac Autos,9.08507,7.48337
1048167218,CfC Stanbic Bank,9.03545,7.48718
1048166720,First City Monument Bank,9.07115,7.48603
1144496976,Canet School,9.02557,7.48362
1203121765,Hotel de Bamenda,9.05965,7.47186
1141794237,Liatu Plaza,9.0297,7.5671
1144499393,United Evangelical Church,9.03191,7.57126
1136368340,Mitobi CCTV,9.0621,7.4708
1141810171,Chanbiam Suite,9.03021,7.52095
1203171538,Abuja Preparatory School,9.07272,7.46908
1113284704,Kinggi Palza,9.01443,7.56357
1142404893,Hotel Lamitel Annex,9.09061,7.43533
1113284930,Aradu Pharmacy,9.02613,7.49787
1113281417,Four Square Gospel Church,9.14931,7.35507
1113284922,Serendib Restaurant,9.07366,7.47074
1141802620,Faifview Bed and Breakfast Resort,9.0086,7.56327
1202897323,Silverbird Cinemas,9.06755,7.48604
1203197758,Shopping Centre,9.06279,7.47068
1141788333,Rafael Ajie,9.1445,7.3477
1203198025,Pato Plaza,9.14112,7.31468
1048163732,Aua Plaza,9.08359,7.46647
1096546527,Pharmacy,9.06704,7.46371
1083949704,Paris Choice Signature Furniture,9.00682,7.47269
1141887110,Vickbalkon Lake Side Apartment,9.06583,7.42562
1144660165,Dominion Chapel International Church,9.02194,7.46732
1113314739,The Islamic Centre,8.99436,7.37383
1141807569,Oluwalogbon Motors,9.06118,7.466
1141789200,Embassy Thailand,9.09308,7.47831
1113280693,Lakeside Pharmacy,9.08293,7.46713
1144463225,Covenant Leaders Academy,8.96115,7.54783
1136367909,Zeina Suites Limited,9.07421,7.49797
1144664571,Universal Basic Education Junior Secondary,8.89044,7.21616
1136369782,Agape Church,9.06057,7.46883
1203197706,Shops,9.07998,7.41687
1048165746,Golf View Hotel,9.06118,7.41726
1113280775,MFM Church,9.14938,7.33715
1203197634,Crowther Plaza,8.99794,7.47748
1203197821,Banex Plaza Annex,9.08388,7.46945
1141820158,Hill Top Annex-House,9.06424,7.47229
1017599692,N. N. P. C.,9.0728,7.45764
1048168599,Hasana Guest House,9.06831,7.49004
1141792515,Federal Ministry of Housing,9.07922,7.45533
1141791484,Steven Morries Loan and Investment,9.10914,7.4825
1096543249,Bajgio Furniture,9.03383,7.49628
1048158867,First Bank,9.07217,7.47655
1136369037,The Wellness Place,9.07917,7.48667
1141797167,Convent Supermarket,9.01184,7.58836
1141877791,Oroni Garden,9.06228,7.46524
1141887028,Julius Berger Water Front Park,9.08264,7.42247
1113314715,Shopping Plaza,8.97906,7.36285
1096547073,Society for Family Health,9.03996,7.50207
1017600887,First Bank,9.05928,7.45778
1148777904,FCT Archive Building,9.03903,7.49657
1144471103,Redeemed Christian Church of God,8.97936,7.48621
1203126162,Pinocchio Restaurant,9.08253,7.46791
1083948751,Nathans,9.07075,7.48282
1202896508,First Bank,9.08317,7.46813
1024547933,Radio House,9.04195,7.49147
1083948825,Bureau of Public Enterprises,9.10326,7.4922
1039982926,UBA,9.08279,7.47003
1148778409,Karakpoa Travels and Tours,9.02125,7.47281
1141825546,Quantum,9.01945,7.48783
1017600322,Nitel Office,9.08315,7.47202
1048162680,Arik Air,9.08222,7.49259
1203121730,Police NPF Barracks,9.07176,7.40303
1141805991,Wasuhab Shop Rite,9.07297,7.47671
1136369277,Black Lounge,9.07686,7.4979
1203197812,Emdic Plaza,9.11701,7.40499
1136369789,Gwarinpa Ultra Modern Shopping Complex,9.06601,7.39563
1202896483,Equitorial Trust Bank,9.0722,7.46605
1017606990,First Bank,9.06561,7.46827
1141793954,Omegah Hotel,9.04959,7.46066
1141803642,Top Woman Collections,9.06832,7.46765
1141869860,Market Complex,9.14999,7.31999
1203122912,Pinda Valley Resort,9.02308,7.49666
1141818571,Savannah Suites-Resort,9.03004,7.47635
1083947699,Parking Lot,9.0344,7.49655
1203121707,Old Chelsea Hotel,9.05195,7.48055
1017603222,Shippers Plaza,9.06043,7.45708
1048168400,Murg Shopping Complex,9.03641,7.48534
1083949522,Union Bank,9.08294,7.48861
1113284717,MFM Church,9.01843,7.5623
1142404652,Late Alhaji Ali Adamu Shopping,9.06456,7.47951
1141788210,United Bank for Africa,9.05247,7.49751
1202896124,Gudu Police Station,9.00938,7.46798
1048166178,Public Complaints Commission,9.08246,7.4898
1141804247,Feps Nigeria LTD,9.02952,7.40302
1048158570,Kenaz Plaza,9.0722,7.46604
1096543222,Suleja Clinics & Maternity,9.03301,7.49018
1203126179,Obat Oil,9.0657,7.4692
1203197664,Cor Marial School,9.01767,7.49307
1141801995,God's Time Plaza,8.88106,7.2297
1203197733,Erisco Shopping Centre,9.06691,7.46519
1017601525,Area 1 Shopping Centre,9.03182,7.47212
1202896353,Lagos House Abuja Central Area,9.03212,7.46998
1048158088,Multilinks,9.07557,7.47215
1204322480,Coscharis Motors Limited Abuja,9.08151,7.46644
1113320741,Forks & Fingers Restaurant,9.0201,7.49019
1136369792,FMS Petrol Station,9.06782,7.40204
1141801982,Lea Primary School,8.884,7.22761
1048167055,Nafdac,9.05481,7.45658
1096545597,Anbeez Plaza,9.05951,7.45462
1141797187,First Bank,9.02816,7.58319
1141801114,Crown Net World,9.06647,7.45711
1017594333,Nig. Gas Co.,9.07249,7.45799
1136369285,True Value Supermarket,9.08947,7.40914
1113284916,Nokia-Blackberry Shop,9.01822,7.49204
1141886668,Cole and Co Property Solicitors,9.0576,7.48845
1141804256,Cliffton Services Nigeria Limited,8.98263,7.37159
1083949190,Hampton Apartment,9.04293,7.50863
1130378743,Aso Savings and Loans,9.14988,7.32663
1203198026,Samsung Plaza,9.14894,7.32166
1113284233,King's Best Computer School,9.08326,7.46677
1141821564,Anelo Hotel,9.07185,7.43926
1142404774,Borehole Drilling Co,9.00935,7.47653
1203197690,Shopping Complex,9.03935,7.48405
1113284713,Karu Park,9.01403,7.56377
1096543505,The Citadel and Towers,9.02928,7.44014
1083949564,Cri Mediclinic,9.0807,7.484
1144498615,Government Secondary School,9.02906,7.57337
1048167261,Deo Gratias International School,9.02222,7.49446
1202896993,Banana Republic,9.04396,7.52347
1048158052,Sauki Private Hospital,9.07123,7.45844
1144495620,FCT College of Education,9.08521,7.21609
1141830215,Edulegacy Consultancy Services,9.09092,7.52572
1048159334,Franchise House,9.04294,7.50166
1113315933,Karu Market,9.00776,7.57343
1017594590,DHL,9.08327,7.47141
1048157905,JHN Microfinance,9.08283,7.46841
1113314710,Goldstreet Church,8.98962,7.37536
1141871397,Federal Hospital,9.01494,7.40883
1096545109,Future Hope Academy,9.09148,7.40943
1096548597,Libya,9.03418,7.51672
1083948905,Harmonia Hotel,9.04096,7.50636
1113280887,Ozbon Club,9.02919,7.56859
1048166751,Plateau House,9.05312,7.49853
1142403016,Astot Hotel,8.99843,7.56934
1144443818,An Noor Mosque,9.07598,7.48394
1142409621,Rupscon Resources,9.04245,7.39116
1141799298,McIner Construction Company Nigeria,9.04803,7.40401
1126270691,Stallion Motors Limited,9.04096,7.47362
1126270692,Stallion Motors Limited,9.04096,7.47362
1048164500,Zenith Bank,9.06307,7.4778
1048162727,Pioneer Driving School,9.06287,7.42414
1141790258,Blue Camel Energy,9.0205,7.49534
1136368051,Conoil,9.0776,7.41311
1203121902,Setraco Life Camp,9.07224,7.40452
1141792901,Kuje Primary Health Care Centre,8.88312,7.23394
1141881266,G-Classic Cafe,8.97195,7.38309
1048160638,Canopy Hotel,9.06822,7.44968
1144458384,Diamond Life Ministry,9.11697,7.40425
1136371151,Omnivision Eye Clinic,9.08263,7.46808
1144478476,Twins Nursery and Primary School,9.03617,7.58035
1017595527,Rivers Bayelsa Liaison Office,9.04442,7.52333
1142404852,Economic Community of West African States,9.04261,7.5251
1083947431,Abia Line Transport,9.06823,7.44993
1142403398,National Youth Service Corps Orientation Camp Kubwa,9.14853,7.31705
1136370579,Zhara Stores,9.07933,7.41682
1202896542,Car Park B,9.05834,7.46772
1113284735,Kubwa Shopping Plaza,9.14724,7.33459
1096550218,Lebanese Embassy,9.08868,7.50197
1083948578,Langfield Royalty Motel,9.04586,7.50237
1203121923,Exclusive Mansion Hotel,9.02936,7.58528
1202896102,Hankaka Apartments,9.00532,7.46689
1148640004,Christ Embassy Church,9.00419,7.57261
1048165841,Royal Tropicana,9.0722,7.47205
1048168959,Mr Bigg's,9.10303,7.40467
1141792608,Omeligwe International,8.89965,7.25343
1048166689,Zartech,9.0726,7.48933
1144474921,Redeemed Christian Church of God,8.94402,7.32798
1096545775,Peppersoup Republic,9.0313,7.49504
1141827238,Numex Nigeria Limited,9.04656,7.46982
1141799291,Artco Industries,9.03455,7.40638
1202896369,Association of Debt Recovery Agent,9.0227,7.48896
1113284359,Peculiar Peoples Assembly,9.06851,7.43883
1141833295,Pioneer Hotel,9.06432,7.4719
1142402533,Quanteq Technology Services Limited,9.03958,7.46843
1144660689,Grace of the Highest Christian Academy,9.03074,7.58737
1017602325,PHCN,9.08037,7.47228
1141885981,National Assembly Quarters,9.01715,7.47606
1017601642,Arewa Polyclinic,9.06081,7.48315
1048157813,Park,9.06363,7.47996
1048167159,Area 11 Centre,9.0442,7.50415
1141801654,Ie Akukwu and Sons Enterprises,8.99868,7.47184
1017601563,School,9.03312,7.4712
1141805386,Fin Insurance Co.,9.07942,7.5013
1048162309,Embassy Slovakia,9.04855,7.50707
1048698176,Access Bank,9.06724,7.46572
1144661361,National Assembly Quarter Nursery and Primary,9.00663,7.47959
1202896851,Sigma Flats,9.07782,7.47373
1098415438,Regional Parliamentary on Lake Chard,9.10776,7.48403
1136369045,Elizade TOYOTA,9.04369,7.47866
1048163046,Amusement Park,9.08497,7.47662
1141876543,Oasis Hotels,9.02536,7.58276
1141808309,Human Rights Violation Commission,9.10306,7.48614
1048167211,Wuse Neighbourhood Center,9.06223,7.46909
1048158277,Titsal Global Schools,9.07676,7.48774
1202896774,Standard Chartered,9.07362,7.49026
1141800382,Hamon Productions,9.03525,7.48509
1203126205,Sani Brothers Filling Station,9.02738,7.57812
1048162248,NIPOST,9.03853,7.4845
1202896375,Intercontinental Bank,9.03026,7.47988
1141886924,New Media Naija,9.0475,7.48501
1144463402,United Apostolic Church,9.01148,7.5585
1136368591,Lokay Christian Shop,9.0613,7.46719
1141789281,Efcc Academy,9.00325,7.56103
1202896942,Skye Bank,9.02873,7.58457
1141789464,Katsina State Government Lodge,9.03687,7.51928
1141789129,Net Express,9.07531,7.49725
1136370650,Ambience Restaurant,9.07372,7.47573
1048166711,Vina Furniture,9.07144,7.48465
1141791318,Setraco Construction Company,9.07646,7.44053
1144478474,Redeemed Christian Church of God,9.04524,7.58896
1048697061,First City Monument Bank,9.0387,7.50123
1141819319,Niu Ukoand Company Limited,9.07408,7.40534
1048162526,411 Plaza,9.07262,7.49029
1113281415,Soul Lounge,9.14251,7.35386
1048157225,Bureaux de Change,9.06461,7.4831
1141788367,Willands Plaza,9.06384,7.47713
1113281504,Mini Me Baby Shop,9.0635,7.42276
1144472332,Turkish International College,9.0808,7.47085
1136370648,Corporate Bureau de Change,9.07401,7.47581
1141794259,Goshen Court,9.14262,7.31083
1048168203,Keystone Bank,9.06733,7.46546
1048158387,National Planning Commission,9.04611,7.4647
1048168724,Mr Bigg's,9.06474,7.47972
1048166732,Embassy Australia,9.08465,7.48403
1048159342,Federal High Court Annex,9.08256,7.50154
1141803173,Isyesph Investment,9,7.47349
1083949771,Gaduwa Estate,8.99864,7.46502
1203126132,Finance Quarters,9.04674,7.4472
1203197797,Wadata Plaza,9.06422,7.45702
1096545200,Garki Lnternational Market,9.02712,7.49381
1141827705,Be Jay Suites-Garden,9.10225,7.42246
1203197671,Lumen Christi School,9.02207,7.47389
1113319482,Amazing Place Pharmacy,9.0885,7.47411
1144498425,Junior Day Secondary School,9.08139,7.30771
1083949630,RFH Clinic,9.07853,7.41431
1017605866,Embassy Ghana,9.04239,7.48277
1144502445,Elect Rejoice in Christ Ministry,9.03206,7.58981
1203197839,Emaddo Plaza,9.03036,7.5891
1113284736,Grace of God Specialist Hospital,9.14856,7.33346
1039945818,Ecobank,9.04068,7.52425
1141871117,Maanah Estate,9.06105,7.42558
1048699448,Fidelity Bank,9.03519,7.48829
1017593647,Kings Care Hospital,9.06519,7.47504
1136368247,Barcelos,9.0549,7.4892
1048162724,Mountain of Fire & Miracles,9.06803,7.44277
1017603947,Valley Pride,9.03887,7.48222
1113316658,Top Rank Hotels Galaxy,9.06854,7.43473
1141793225,Ms Makor,9.08364,7.4694
1141793483,Imo State Lodge,9.03468,7.52232
1141793719,Ministry of Foreign Affairs,9.10074,7.41517
1141794029,Ustra Guest Inn,9.04511,7.49638
1141794046,Erugu House,9.04369,7.52621
1141794123,Wuse Shopping Mall,9.06383,7.48016
1141794137,Foreign Affairs Quarters,9.09141,7.49876
1141794150,Directorate State Protocol,9.05829,7.51164
1141794183,Executive Suites,9.0412,7.526
1141794190,Eden Palace Apartments,9.0779,7.47147
1141794222,Theophilia Resort,9.14659,7.37198
1141794232,Mr Bigg's Kubwa,9.15047,7.32343
1141794243,Spring Hotel,9.14421,7.31609
1141794247,Yayale Armet Estate,8.97409,7.49021
1141794254,Dutse Apo Health Centre,8.97796,7.4866
1141794255,Classique Bride,9.1442,7.34822
1141794613,Holy See,9.0809,7.49692
1141794698,Lukeman Fashion and Designer,9.03061,7.49458
1141794720,Abbah Ishaqs Fashion for Kids and U,9.03831,7.48217
1141794759,Unity Bank,9.01659,7.58292
1141794864,Wealthy Partners,9.06004,7.46973
1141794895,Reginers Inn,9.08001,7.44553
1141794903,Property Sales,9.08209,7.45032
1141794912,Besio Pharmacy,9.03187,7.57128
1141794973,Hotel Rose Bud,9.03944,7.50249
1141794976,Protea Hotel Abuja,9.09275,7.50031
1141795348,Major Oil Limited,9.09548,7.21808
1141795462,Ministry of Power and Steel,9.07501,7.49009
1141795533,Embassy Namibia,9.03562,7.5219
1141795579,Helper Medical Laboratory,9.0141,7.56739
1141795705,Mavisors Supermarket,9.01519,7.5654
1141795721,Sam Nelly Suite,9.04506,7.50424
1141795816,Abuja Enterprises Agency,9.08319,7.47304
1141795831,Nigeria Railway Corporation,9.10731,7.48204
1141795958,Omni Eye Vision Clinic,9.0826,7.46803
1141796003,Police Affairs Quarters,9.01373,7.57711
1141796027,Grand View Suite,9.02309,7.56728
1141796036,Nigeria Bottling Company,9.02955,7.4105
1141796041,Jiocane Ventures Nigeria,9.0337,7.40453
1141796057,Abuja Amusement Park,9.05363,7.46524
1141796273,Ekiti State Government Lodge,9.02717,7.51952
1141796418,Taraba State Lodge,9.0361,7.51774
1141796991,Koro Plaza,9.07128,7.48806
1141796994,Machina Plaza,9.06037,7.46649
1141796999,Dee-Awal Plaza,9.05827,7.45859
1141797006,Asande House,9.06571,7.46812
1141797007,Rafiu Ibrahim and Co.,9.05469,7.45674
1141797015,The Hut Catering,9.08789,7.47454
1141797017,Oceanic Bakery,9.07134,7.48546
1141797020,Asetech Limited,9.07506,7.47183
1141797025,Zenith Medicare Limited,9.07784,7.4788
1141797026,Federal Road Maintenance Agency,9.07993,7.47677
1141797031,Anncom Media and Ict Center,9.04012,7.48422
1141797071,Cherry Plus Pastery and Bakery,9.06511,7.47916
1141797142,Edmaco Wood Nigeria Limited,9.03012,7.58884
1141797143,Apex Resort,9.02405,7.56634
1141797146,Jibsons Motors,9.03004,7.58832
1141797153,Bismol Hospital,9.03622,7.57572
1141797157,Washington Guest House,9.03635,7.5771
1141797158,Chuks Estate,9.03714,7.58008
1141797163,Legacy Hotels,9.0387,7.58008
1141797164,Franc Amadi and Partners,9.03067,7.5884
1141797165,Pinnacle Hotel,9.03256,7.58511
1141797177,Pacific Guest Inn,9.03573,7.58001
1141797179,Dunarx Pharmacy,9.02752,7.57055
1141797181,Ibinanta Hall,9.0317,7.56953
1141797184,Kings Clinic,9.02949,7.58197
1141797196,Gloriana Hotel and Suites,9.0329,7.47464
1141797276,B Stabilini and Company Limited,9.07812,7.50113
1141797411,Nacrdb,9.03571,7.47748
1141797527,Embassy Italian,9.07931,7.51048
1141797530,Centre Point Network,9.07759,7.47857
1141797531,Jorany Hotel,9.0785,7.47947
1141797534,Silverspoon Restaurant,9.07866,7.47965
1141797698,Brado Supermarket-Pharmacy,9.0405,7.5211
1141797706,Enuma Banquet Hall,9.02536,7.58303
1141797765,First Call Hospital & Diagnostic Centre,9.08976,7.4321
1141797785,Unity Bank,9.07181,7.45335
1141797809,Sharia Court,8.88075,7.22992
1141797824,Gamil Business Arcade,9.02944,7.5866
1141797860,PHD Consulting,9.05363,7.46567
1141798044,National Youth Service Corps,9.02738,7.474
1141798164,Torty Net,9.06338,7.49907
1141798185,Generator Warehouse Limited,9.09179,7.4839
1141798230,Dazaar. Com,9.04897,7.44654
1144498345,Delphia Kiddies Land School,8.98486,7.3745
1136370652,Nigeria Air Force Holding Company,9.07898,7.47555
1148777189,Studio Xtra,9.10581,7.4137
1113281616,First Shopping Plaza,9.02034,7.57195
1202896400,Cyprian Ekwensi Centre for Arts and Culture,9.03752,7.48448
1141799976,Al-Meezaan,9.08005,7.41622
1141833142,Sanni Wadata Clinics Limited,9.0869,7.47056
1141832966,Access Bank,9.06682,7.44166
1048698142,Zenith Bank,9.05333,7.49885
1096547139,Unity Bank,9.04977,7.48732
1083948935,Zenith Bank,9.07515,7.49485
1144457493,Assemblies of God Church,9.0652,7.46701
1144500263,Cherubim and Seraphim Church,9.1402,7.37468
1048168393,Home Cooking Restaurant,9.07544,7.46642
1048162182,HP Service Centre,9.07592,7.48844
1141823630,Instant Loan Firm,9.03417,7.48183
1142402269,Julius Berger Neighbourhood Park,9.06836,7.45463
1136369620,Unique Blossom Schools,9.09531,7.49898
1096547950,The Hillside School,9.11658,7.40794
1141803049,Felgen Nigeria,9.08672,7.49191
1083947713,Central Bank of Nigeria,9.0505,7.49181
1113284331,Nigeria-Ukrain Chambers of Commerce,9.07117,7.48982
1048158076,Ecobank,9.07769,7.47866
1141789124,Baytown Lounge,9.00751,7.47783
1141810106,N. I. H. T,9.05989,7.47458
1144445148,Heavenly Vision,8.8616,7.28862
1096549362,Pace Setters Academy,9.11216,7.42142
1144474994,Loving Hands International School,9.13571,7.38389
1144476413,Redeemed Christian Church of God,9.00665,7.56418
1144473132,Treasure Land Montessori School,9.04081,7.5272
1048158361,Embassy Republic Chad,9.09114,7.48871
1048162262,L. E. A Primary School,9.06275,7.47199
1144471914,Evangelical Church of West Africa,8.9973,7.48737
1113284197,Tatus Guest House,9.02771,7.56521
1017595380,1st Forty,9.08062,7.46568
1017602440,Escort,9.07154,7.45904
1048158174,Garki Leisure Park,9.02124,7.48918
1144471457,All Christian Missionary Church,9.08557,7.31021
1144478275,Solid Foundation Private School,9.10021,7.49232
1144503655,Family Worship Center Care Group,9.03968,7.51997
1141804006,Park Development,9.02222,7.48915
1115184506,Ecwa Evangelical Academy,9.00898,7.56805
1144665137,Dunamics International Gospel Centre,9.03286,7.58006
1141792660,Core Studios,9.14834,7.33374
1017598753,School,9.04284,7.50906
1136370674,Heros Plaza,9.07939,7.48068
1048697636,First City Monument Bank,9.04024,7.50524
1144500269,United Evangelical Church,9.14483,7.37462
1141790272,Canneck Investment,9.07781,7.47372
1083949521,Linea Italia,9.07784,7.49997
1144457568,Deeper Life Bible Church,9.09785,7.41175
1048163228,Etisalat Office,9.07593,7.4637
1048167203,Circles Gardens,9.08517,7.4831
1144472505,The New Generation Bible Church,9.06249,7.46775
1096545823,Covenant Foundaton School,9.00597,7.46726
1113284329,Cameroon High Commission,9.07107,7.49231
1141885289,Yeere Air Garden,9.02894,7.59041
1203115696,Fidelity Bank,9.02797,7.58069
1203197809,Shops,9.11506,7.40957
1058645051,Nigeria Immigration Service,8.9589,7.24949
1048158082,Swiss Embassy,9.0807,7.48274
1083949903,Summit Villas,9.06848,7.40367
1203121731,Public Works Life Camp,9.07163,7.40585
1141830367,Lamonde,9.08998,7.47574
1048158079,Redeem Church,9.0784,7.47937
1141798184,Embassy Uganda,9.09114,7.48391
1203121773,Dantata Quarters,9.08839,7.47821
1141826773,Wagitel Communications,9.07867,7.46883
1141808044,Clothes Affairs,9.01594,7.57758
1144472215,New Global International School,9.02725,7.58351
1136370658,The Reel Photography,9.08815,7.47454
1096546122,CA Jeny Pharmacy,9.01117,7.47273
1048166714,Access Bank,9.07091,7.48769
1017600757,Nig. Mining Corp.,9.07163,7.47576
1141806635,Airwave Residence,9.07001,7.48245
1083949182,Samaritan Guest House,9.11716,7.40582
1202896880,Aso-Garden Estate,9.09698,7.47784
1142405104,C Construction Co Yard and Office,9.11817,7.43379
1017598964,Corner Shops,9.03908,7.52759
1017595471,Boboli,9.03362,7.48822
1083947864,Ibi Ton Supermarket,9.03326,7.49889
1113281520,Poly Plaza,9.07265,7.4761
1113280884,Goodman Medical Lab,9.0294,7.56849
1136370669,All Purpose Pharmacy & Stores,9.07873,7.47973
1048166612,Image Scan & Diagnostic Centre,9.09291,7.49857
1141793924,Adegboyega Adepegba and Co.,9.00621,7.47266
1017918868,Transcorp Hilton Abuja,9.0749,7.49484
1141797001,Suez Crescent Park,9.06184,7.4796
1202896405,World Bank,9.04302,7.52348
1017593875,Federal High Court,9.08796,7.48116
1203121736,Jevinik Restaurant,9.06905,7.48131
1203052410,Jabi Lake Mall,9.0762,7.4264
1141797024,Dreams Recreational Park,9.07289,7.46969
1017591551,Twin Palm Rendezvous,9.0702,7.46192
1202897247,Diamond Bank,9.05363,7.49904
1113285238,Assemblies of God Church,9.14895,7.33611
1048157311,Les Creoles Restaurant,9.03503,7.49816
1142411000,UBA,9.03031,7.59017
1141798967,Foundation Plaza,9.06185,7.45222
1048161764,Gwandal Centre,9.07675,7.48923
1148775634,Eltensi Plaza,9.10643,7.41359
1203126154,AP,9.06236,7.41761
1202790151,Skye Bank,9.04573,7.5272
1141794085,Chynatt Global links,9.06435,7.41244
1096543165,Pamper Haven Spa & Salon,9.11591,7.40959
1144499150,National Open University,9.0756,7.47061
1048165737,Diamond Bank,9.03151,7.49559
1017592776,Federal High Court,9.06666,7.49693
1136368061,News Agency of Nigeria,9.0462,7.48271
1048696867,Ecobank,9.05487,7.46124
1141887400,Embee Plaza,9.06638,7.43916
1048167205,Maitama District Hospital,9.08611,7.48098
1141800921,Iddo Serikifada Health Post,9.07647,7.30557
1148773303,Millipat Plaza,9.03315,7.44271
1142401684,Acces Hospitals Annex & Surgical Centre Hospital,9.08425,7.32361
1141808746,Federal Ministry of Education Annex,9.05617,7.48104
1144471873,Christ Victory Assembly Church,9.14322,7.31802
1096543122,Waec Office,9.07836,7.49203
1144445150,Glory Church,8.90381,7.25617
1144445191,Apostolic Nunciature,9.08097,7.49698
1144445482,Baptist Church,8.88393,7.23452
1144445483,Great Leader Academy,8.94604,7.54391
1144445484,Aflon Academy,8.87997,7.23066
1144445487,Mpape Primary School,9.13901,7.49417
1144445494,Abari Academy,9.07595,7.31124
1144445501,Jiwa Primary School,9.0802,7.30931
1144445889,The Computer Academy,8.98442,7.56802
1144445892,Cherryfield College,8.98437,7.56845
1144446082,The Legacy Academy,9.07051,7.43222
1144446122,Karma Primary School,9.07126,7.36318
1144446138,Fairview School,9.03285,7.5007
1144446329,University of Abuja,8.9764,7.17802
1144446537,Gosa Primary School,8.94314,7.29904
1144446694,Ecwa Church,8.96673,7.40606
1144446698,Victory Stone School,8.94569,7.33168
1144447028,Grande Villa School,9.06998,7.40137
1144447229,Jogun It School,9.05192,7.47688
1144447507,Baby Love School,8.98969,7.35799
1144447508,Christ Embassy,8.94161,7.32664
1144447512,Overcomers School,8.98136,7.37444
1144447514,Kela Praise Academy,8.94706,7.33098
1144447705,Tasha Primary School,9.0847,7.32401
1144447925,Capital Science,8.86472,7.28867
1144448316,Heritage Academy,9.07952,7.47704
1144457585,Learning Spring School,9.04777,7.509
1144458044,The Day Spring College,9.1452,7.34394
1144458097,Junior Secondary School,9.04238,7.50134
1144458103,Jethrone Eagle Academy,9.14384,7.3101
1144458108,Christ Victorious Church,9.14969,7.32851
1144458789,Junior Secondary School,8.82934,7.32899
1048697691,Unity Bank,9.06674,7.45475
1096549748,The Siloam School,9.10069,7.42065
1203197633,Awnar Plaza,9.00191,7.47214
1048160534,DBM Plaza,9.08061,7.46489
1048162549,Esteem International School,9.06715,7.47154
1113284670,Funcare Day Care,9.01362,7.56758
1142410121,Nigeria Export Processing Zones Authority,9.04828,7.50723
1048158094,Chicken Republic,9.07376,7.47107
1017596868,Kampala,9.0657,7.47311
1136369034,Nitel Yard,9.06928,7.48793
1048157239,Dream Land Suites,9.07261,7.41516
1048699637,Access Bank,9.07091,7.4877
1136369051,Foursquare Gospel Church,9.05302,7.52547
1141823269,Wuse Zone VI Park,9.06692,7.45858
1148778431,Sysak Plaza,9.10528,7.41515
1203121775,Num Nums Restaurant,9.07662,7.49994
1141798721,Mainstreet Bank,8.88329,7.23037
1141873673,God's Own Boutique,9.14995,7.35408
1048159809,NPF Microfinance,9.03373,7.49733
1203197641,Hebron Plaza,8.99994,7.47443
1141788857,National Production Centre,9.05763,7.47019
1113314731,Animal Care Vet,8.98626,7.36261
1141788166,KIA Motors,9.03647,7.49881
1144473256,Evangelical Church of West Africa,8.94815,7.5481
1048166957,Nnamdi Azikiwe International Airport,9.01119,7.27346
1017599402,Anambra State Liaison Office,9.02653,7.48679
1144476433,Redeemed Christian Church of God,9.14485,7.34531
1048731670,First City Monument Bank,9.06053,7.49659
1113322253,Mr Bigg's,9.02463,7.57291
1203118840,Freddies Lodge,9.04558,7.49493
1144660575,Florence Ade-Akodu International School,9.10567,7.48462
1141886009,Aeroprecisa Nigeria Limited,9.06538,7.49605
1048164639,First City Monument Bank,9.03864,7.50119
1141792913,Better Life Hotels,9.1357,7.48899
1141797035,FCS Limited,9.08066,7.48268
1203126265,Jiepee Guest House,9.15013,7.32384
1096546317,Camel Wool Medical Clinic,9.08209,7.41635
1203121726,Top Class Guesthouse,9.07816,7.39664
1096545919,Embassy of Mexico,9.07471,7.49941
1141886550,Niger Delta,9.0267,7.5799
1083950112,Nordy Meridien B&B,9.0738,7.4483
1136370107,Abuja Mosque,9.1172,7.42158
1136367907,Sinoni Lodge,9.0741,7.47768
1083948420,Shallom Plaza,9.00087,7.47308
1113284340,Aubit Community Hall,9.02585,7.56625
1136370572,Gift Palace,9.09343,7.49655
1096543253,Nigerian Export Promotion Council,9.0722,7.48226
1203197655,Sahad Store,9.03491,7.4957
1141831814,Pivot Engineering Company,9.04863,7.4739
1141789947,Atms Kitchen,9.09152,7.41156
1141790797,Chum Chum,9.07769,7.46243
1141802957,Infinity Homes,9.02484,7.48641
1141796998,Amma House,9.04048,7.46447
1141825347,Abbacom,9.06538,7.42486
1096547066,Sugarland Restaurant,9.03814,7.50172
1048162158,Gloriana Hotel and Suite,9.0326,7.47412
1141793515,Nigeria Communication Commission,9.0638,7.49322
1136370182,Starville Secondary Schools,9.09328,7.41213
1096543091,Majik Photo Studio,9.09751,7.41249
1141871398,Baze University,9.01622,7.40239
1113315375,Rossa Terraces,9.07576,7.43017
1142405976,Comerel Travels & Tours LTD,9.08565,7.48144
1048159257,NNPC,9.0024,7.47256
1113281611,Auto Repair,9.02053,7.57205
1141802026,Prince & Princess Estate,9.00304,7.45594
1136367536,House 797-Hootas Bar and Grill Restaurant,9.06968,7.48061
1142403310,Emscon Boreholes Drilling Co LTD,9.03596,7.47509
1141825169,Exlod Tectronix,9.0591,7.47153
1144477049,Cherubim and Seraphim Church,8.87168,7.24956
1048164491,Federal Civil Defence Administration Housing Estate,9.07257,7.46543
1135252410,Enterprise Bank,9.02804,7.58111
1141796020,Saint Peter Hospital and Maternity,8.9752,7.36286
1048158635,GTBank,9.07997,7.49059
1141832795,Allmark Homes Limited,9.06647,7.45706
1204346602,Stallion Motors Limited,9.04096,7.47362
1113284230,Cherubim & Seraphim Church,9.14969,7.33724
1141803564,First Bank Loan Insurance Company,8.9848,7.49398
1017601387,Embassy Brazil,9.09226,7.48395
1142409344,Almana Basic Education Centre,9.07944,7.39918
1141799966,Eden Place,9.07697,7.47193
1203126200,Ascon,9.07009,7.4792
1083949183,Supa Pharmacy,9.117,7.40493
1136367920,National Lottery Trust Fund,9.10476,7.48592
1141824094,Access Bank,9.06139,7.49861
1048165843,Ecowas Community Court of Justice,9.07277,7.47219
1048162873,Embassy USA,9.04079,7.47704
1136370570,King Joe Car Wash,9.09792,7.41717
1113283937,Fish Arena,9.14819,7.32492
1141819315,Debo Aderibigbe and Company,9.02145,7.47119
1136371156,First Bank of Nigeria,9.10407,7.27405
1096543178,Redeemed Christian Church of God,9.07522,7.46618
1083948075,Enterprise Bank,9.06772,7.44046
1141792001,New Amana Suites,9.06267,7.45418
1141793833,Wuse II Extension,9.07509,7.39134
1141821723,Federal Ministry of Power and Steel,9.06269,7.45849
1126270271,Stallion Motors Limited,9.04096,7.47362
1144476652,Devine Christ Apostolic Church,9.14471,7.31391
1141792576,Nigeria Prison Society,8.88474,7.22752
1141789113,Securities & Exchange Commission,9.05547,7.48034
1048698151,Zenith Bank,9.05985,7.48729
1144445826,Pace Setters Academy,9.11278,7.42061
1202897351,Bank Phb,9.02792,7.58188
1141800428,Uzo Kalu House,9.06601,7.49304
1017594226,Imperial,9.0723,7.47574
1098412788,Institution of Cooperate Administration,9.06671,7.44066
1136370671,Cmetrix Computers,9.07576,7.472
1083948813,Classic Restaurant,9.01871,7.47902
1096546276,Access Bank,9.06104,7.49045
1048164271,Mama Cass Restaurant,9.04482,7.5028
1048158257,Christ Liberty Church,9.06196,7.41812
1136370985,Chedi Galleria,9.0934,7.40956
1141790700,Attah International Limited,8.98584,7.36136
1113281413,Anglican Church,9.14769,7.35516
1048166722,Unity Bank,9.07064,7.48268
1136368055,Famak Barbers,9.11014,7.40421
1136368342,Rock Plaza,9.0789,7.41582
1202896948,UBA,9.02759,7.57908
1141801659,Wema Bank Complex,9.04696,7.47077
1141789264,Joman's Venture Nigeria Limited,8.9677,7.55232
1113321864,Ciroc Bar & Grill,9.05907,7.46237
1048165095,Summerset Continental Hotel,9.07689,7.49792
1024264389,International Conference Centre,9.04632,7.48951
1083948906,First City Monument Bank,9.04059,7.50556
1113281410,St. Andrew Church,9.14847,7.3551
1113322636,Diznos Restaurant,9.02374,7.4873
1048157375,Godab Plaza,9.03064,7.47809
1144445253,All Saints Church,9.06522,7.46283
1048162829,Ecobank,9.07724,7.49871
1136369628,Jades Hotel,9.06074,7.45491
1113314749,Some Place Else Guest House,8.97637,7.36288
1141817806,Ministry of Defence Quarter,9.06595,7.3687
1136367888,Auto Repair,9.10173,7.40268
1096548490,Tender Vine Park,9.08263,7.47449
1113284552,Peace Motors Park,9.15063,7.31939
1141819823,Rosa Communication,9.01637,7.49318
1048168821,Lebion Clinic,9.06965,7.4015
1202896626,Travel Companion,9.06322,7.47789
1113315939,Cortland Garden,9.00618,7.57293
1141829357,L'Etoile Restaurant,9.07185,7.46505
1017595086,Holy Trinity Hospital,9.03109,7.50358
1141821434,Niger State Government Lodge,9.04158,7.5157
1142403405,City Concrete Industry Nigeria LTD,9.12224,7.4022
1048698088,Ecobank,9.03512,7.48791
1144479497,Cherubim and Seraphim Church,9.03695,7.47694
1048159957,Lea Nursery and Primary School,9.07189,7.44638
1144664369,All Saints Nursery and Primary School,9.05939,7.47058
1141804253,Crayola International School,8.99334,7.37034
1136369207,Raythan Pharmacy,9.09745,7.41261
1096549926,Gwarinpa Shopping Mall,9.08898,7.40808
1203197836,Ibb Square El'Amin Secondary School,9.09752,7.49821
1141798478,Tofa House,9.05854,7.48668
1141798526,Vinotel Limited,9.03975,7.5305
1141798800,Embassy Russian,9.07191,7.49006
1141798878,Dutse Shopping Complex,9.14291,7.36968
1141798917,Flash Multi Services Limit,9.07264,7.46842
1141799070,Christian Pilgrim House,9.06343,7.45897
1141799162,December 9 Designs,9.09065,7.49823
1141799213,DSTV,9.0762,7.46068
1141799268,Cubic Homes,9.03465,7.40201
1141799285,Agura Quarters,9.06452,7.37098
1141799286,Chika Market,8.99192,7.40826
1141799303,Micro Age Solutions,9.05963,7.38375
1141799307,Eagle Partners,8.97196,7.37293
1141799402,Empreal International School,8.88247,7.23273
1141799500,Abraham Plaza,9.06614,7.43812
1141799533,Jarcontech Works,9.03031,7.58745
1141799586,Ogun State House,9.05204,7.49679
1141799631,Skillscout Nigeria,9.08929,7.50152
1141799732,Saffron Hospital,9.03761,7.58005
1141799748,Wema Bank,9.06736,7.46537
1141799790,More Ages 8,9.07045,7.46211
1141799793,Vita Construction Company,9.12093,7.40104
1141799804,Hatfield and Aberdeen Nigeria,9.04154,7.51969
1141799852,Diamond Bank,9.10145,7.2781
1141799853,Diamond Bank,9.10145,7.2781
1141799854,Atlas Micro Finance Bank,9.10155,7.27813
1141799944,Peace Cyber Cafe,9.14521,7.34391
1141799969,Ff22 Guest House,9.15037,7.32276
1141799982,Ministry of Communication-Annex,9.08101,7.47074
1141800258,Cute Creative Designer,9.10202,7.49362
1141800328,Gombe State Liason Office,9.08084,7.46234
1141800336,Finance Building,9.02821,7.49753
1141800429,Adamawa Plaza,9.06684,7.49435
1141800711,Opticare Limited,9.05628,7.46238
1141800716,Masters Automobiles,9.07109,7.47815
1141800922,Uzuno Hotel,9.09433,7.31402
1141800928,Mr Joker Computer Concept,9.10078,7.27852
1141800930,Peace Maternity Home,9.09105,7.31733
1141800931,People's Guest House,9.08444,7.30745
1141800934,Ecobank,9.01121,7.27591
1141800942,Kings Land Hotel,9.07599,7.3097
1141800949,Delter,9.08554,7.31472
1141800956,Kinpal Hotel,9.09263,7.31642
1141800964,Prinzudeh Elect-Electro. Co,9.09991,7.27897
1141800966,Dei-Dei Material Market,9.09972,7.27802
1141801061,Mazafalah Plaza,9.02098,7.56227
1141801083,Meland Aluminium,8.94071,7.31696
1141801188,Bellagio Hotels,9.0772,7.46166
1141801371,Quinc Clinic,9.0717,7.46232
1141801425,Sigma Estate,9.06327,7.4301
1141801509,Embassy United States of America,9.07985,7.51235
1141801588,Nicon Plaza,9.05028,7.48173
1141801638,Bufem,9.06722,7.48591
1141801651,Panasonic Company Limited,9.04785,7.47255
1141801677,Fitness Centre-Obat Oil,9.06574,7.46923
1141801719,Safaya Plaza-Intercon,9.07096,7.48793
1141795357,Kano State Governors Lodge,9.092,7.48812
1048930400,Government Science Technical School,9.02739,7.47932
1141831770,PZ Cussons,9.05511,7.47976
1141795583,GT Plaza,9.02975,7.49345
1048163131,Embassy Niger,9.04145,7.47915
1141805372,Chace Systems Limited,9.06071,7.46895
1203115549,All Saints Church Choir-Wuse,9.06571,7.46235
1202896872,Aso Rock Villa,9.05736,7.51591
1083947511,Manna Supermarket,9.04266,7.52835
1017606183,Embassy North Korea,9.03662,7.46557
1203197683,Shopping Complex,9.01831,7.49192
1017605025,Millennium Park,9.07168,7.50234
1096548965,Home Essential LTD,9.07906,7.46253
1141827533,Erisco Shopping Center,9.06658,7.46439
1083948798,Keystone Bank,9.02425,7.48571
1141807145,Finance,9.02822,7.49753
1096542737,PHCN,9.06313,7.49249
1113322487,Silla Zekka Plaza,9.07118,7.44138
1048168014,CBN Quarters,9.02941,7.49698
1144660031,Multi Wealth International Business School,9.04173,7.49519
1141797707,Prince Palace Hotel,9.02539,7.58321
1144497280,Festival Primary School,9.03538,7.48459
1048158506,Numetro Cinema,9.0545,7.48946
1141809305,RDK Exceptionals Nigeria Limited,9.06876,7.44005
1141790665,Penta,8.96609,7.38186
1048166168,Dunes Continental,9.08424,7.4852
1048931192,Garki Ultra Modern Market,9.02625,7.49452
1202896789,Police NPF,9.06745,7.51097
1083949328,WSPL Superstores,9.09273,7.41276
1136370667,5d Imagery Photography,9.07134,7.48547
1113281458,Diagnostic Medical Lab,9.03092,7.57321
1017595186,Winners Medical Diagonistic & Research Center,9.0326,7.50379
1048163453,Ecobank,9.02807,7.58128
1141885675,France Residence,9.0449,7.51866
1141823741,Real Love Communications,9.02348,7.49194
1141800676,NG Price Hunter,9.04468,7.47364
1113281459,Karu Mosque,9.02967,7.57105
1141808227,Langfield Plaza,9.06971,7.46858
1141832284,Zinox,9.03246,7.48165
1113281617,Total Pharmacy,9.01899,7.57263
1048166087,UBA,9.04909,7.49208
1202896298,Skye Bank,9.03261,7.48405
1017593463,Embassy Zimbabwe,9.04379,7.5197
1141791194,Ashaka Cement,9.04891,7.45759
1017590142,Embassy Algeria,9.0763,7.49822
1048696157,First City Monument Bank,9.07231,7.47638
1083949723,First City Monument Bank,9.08402,7.46933
1048158620,Ewt Micro Finance Bank,9.07346,7.4828
1113284476,Better Living Plaza,9.06277,7.45792
1141868124,Nyanya Relief Market,9.03002,7.57913
1136369311,Hephziba Pharmacy,9.11559,7.4108
1048166729,Xlensio Night Club,9.07154,7.48538
1096542503,Suncourt Guest Inn,9.07921,7.41603
1113281506,Jieon Pharmacy,9.0637,7.42283
1048160812,Yar Adua Center,9.06384,7.48644
1113284790,Busymart Plaza,9.0667,7.43028
1096548790,Ketchup Cafe,9.07964,7.46316
1048699300,Skye Bank,9.03397,7.48712
1141831658,Afinder Venture,9.06054,7.46136
1141817832,Godiya Venture,8.94549,7.54911
1203119377,Adzara Guesthouse,9.06554,7.48033
1048161635,Shop,9.03431,7.48859
1192016544,Federal Ministry of Power,9.06158,7.4989
1203052409,Tsukunda House,9.04617,7.47285
1136370123,Living Faith Church,9.11667,7.4046
1130379062,Ecobank,9.01296,7.56353
1130381857,Access Bank,9.01894,7.57247
1130381858,Access Bank,9.02062,7.57184
1130381859,First Bank,9.01971,7.57219
1141802771,Deba Hospital,9.11851,7.39773
1113321371,Posh Wash Dry Cleaners,9.03123,7.4816
1048698320,Sterling Bank,9.0317,7.48216
1017594454,Sel Sucre,9.05166,7.46621
1202896385,Afribank Nigeria,9.02855,7.47698
1141797533,Frank Woopet Incorporated,9.07871,7.4797
1203197820,Landmark Plaza,9.09288,7.50019
1048158907,Abuja Mosque,9.0772,7.46781
1141806712,Yobe,9.03768,7.50429
1203197721,Leather World,9.07674,7.46268
1144448648,Abuja British School,9.0384,7.50507
1083948446,Winners Medical Diagnostic & Herbal Centre,9.03369,7.50198
1203119309,Le Paradis Apartment Hotel,9.04397,7.52662
1048163511,United Nations,9.08309,7.48868
1144473254,God's Royal Citadel Gospel Centre,8.93564,7.55054
1136367522,Obum Plaza,9.07391,7.49117
1113314751,Gamil Supermarket,9.02859,7.58537
1113281377,Cocin Church,8.87965,7.23203
1083948573,Jevenik Restaurant,9.06906,7.48133
1142410986,Amanet Plaza,9.07931,7.45222
1141875300,Be Kind Nigeria Restaurant and Bar,9.09144,7.31647
1098416927,Lighthouse International Secondary School,9.04554,7.51815
1131907200,Fin Homes,9.0722,7.47651
1017590961,Abuja Mosque,9.07208,7.45247
1203201629,City Supermarket,9.07885,7.4619
1144445891,Christ Embassy,8.95626,7.55035
1136370115,Zenith Bank,9.07921,7.4628
1136371129,Forte Oil,9.09138,7.41378
1141792579,Eket Consulting,8.92395,7.22156
1096542849,Al-Marzuq Pharmazy & Stores,9.06173,7.41872
1017599390,Snock,9.07148,7.46264
1113321175,Tolbert Specialist Hospital,9.00102,7.46931
1141830123,Del Trazi Limited,9.07086,7.48518
1141797532,Areva,9.07635,7.47749
1096548363,Bouygues Staff QTRS,9.06955,7.41334
1161520919,SIXT-Nnamdi Azikiwe International,9.00723,7.27027
1144476656,Cresh Nursery and Primary School,9.14525,7.31341
1048159836,Fadal Plaza,9.0645,7.47818
1203197716,Shopping Complex,9.0722,7.43304
1017606587,DHL,9.03473,7.48737
1017600520,Banex Plaza,9.08463,7.47112
1017602675,Savannah Suites,9.0297,7.47708
1017596700,U. N. D. P,9.04186,7.5192
1202789123,Blue Velvet,9.06637,7.46856
1136371008,Gouba Plaza,9.06661,7.44306
1096543850,Savannah Estate,9.00702,7.47125
1048166709,NNPC Community Centre,9.04034,7.49953
1048168200,Ecobank,9.06714,7.46604
1096542514,Federal Radio,9.04108,7.4912
1098416556,Partnership To Renforce Immunization Efficiency,9.03792,7.50106
1115184964,Bemah Supermarket,9.02073,7.57197
1130377900,Zenith Bank,9.0277,7.57934
1048930511,Federal Government College,9.00426,7.47252
1048165440,Petroleum,9.03256,7.44329
1141790816,Kopa Hospital and Maternity,9.12634,7.38874
1017603863,Angeles Hotel,9.02855,7.48749
1137271450,First Bank Quick Service Point,9.0658,7.3948
1048167139,First Bank,9.08574,7.48937
1017590858,Bulet Construction Company,9.05667,7.50359
1048162679,Union Bank,9.03416,7.48824
1048697775,Diamond Bank,9.04436,7.48539
1130377895,GTBank,9.02821,7.58202
1203126192,Kapino Suite,9.07549,7.47182
1141794872,Maygray Hotel,9.03126,7.57007
1141801734,Prolfa Hospital,9.02359,7.49582
1203197670,BM House Shopping Plaza,9.0204,7.48955
1113284641,Ty Danjuma Foundation,9.07617,7.47
1136368450,Diamond Bank,9.07974,7.50027
1083949188,Beauty Planet & Gym,9.11704,7.40517
1203201619,National Library,9.0357,7.47836
1048164179,Eddy Binya Hotel,9.07548,7.49094
1141790690,Gmark Entertainment,8.98375,7.43341
1048160134,Sovereign Trust Insurance,9.07161,7.47099
1141805727,Enugu State Government Lodge,9.03031,7.52076
1096543827,Standard Chartered,9.06597,7.4925
1048166092,National War College,9.04839,7.48799
1048157449,Finance Quarters,9.04619,7.44745
1096547665,Ekene Dili Chukwu Motors,9.06107,7.45317
1096547774,Prolfa Hospital,9.04276,7.49541
1096547849,Chief Magistrate Court,9.07201,7.46193
1096547850,Havista Hotels Abuja,9.04472,7.51004
1096547906,Nadrem Fitness Centre,9.11147,7.40427
1096547916,Mabela Day Care,9.1016,7.49673
1096547967,National Military Cemetery,9.02056,7.42872
1096548222,Embassy of Morroco,9.05662,7.52771
1096548339,Amani Lounge & Bar,9.03125,7.4973
1096548341,Purple Light,9.07114,7.48815
1096548371,Otiti-M Plaza,9.072,7.47981
1096548393,Portugal Embassy,9.09292,7.50357
1096548434,Copper House,9.06341,7.4574
1096548435,Ministry of Mines and Steel,9.07455,7.48967
1096548602,Rice Etcetera Restaurant,9.06971,7.48244
1096548791,Shadon Furniture Nig LTD,9.07967,7.46322
1096548801,Inec Quarters,9.09543,7.49335
1096548804,New City Inn,9.04967,7.44636
1096549006,Ajb Mall,8.99811,7.47493
1096549007,Aso Savings & Loans,9.00009,7.47211
1096549011,Impacto Car Parts,8.99844,7.47446
1096549067,Pleasure Paradise Park,9.06672,7.45941
1096549068,Pleasure Paradise Park,9.06672,7.45941
1096549342,Dona Kabab Restaurant,9.07816,7.41426
1096549343,Nature Yeild,9.07816,7.41426
1096549358,Hotel de Bently,9.06073,7.44515
1096549749,Pauliham Hotel & Resorts,9.11514,7.4127
1096549752,Star Lucia Nigeria,9.0639,7.42385
1096549863,Utako Market,9.06679,7.44498
1096549868,Timason Investment Limited,9.0669,7.44397
1096549925,Obumek,9.07528,7.46464
1096550226,High Court of Justice,9.0639,7.45784
1096550267,Samsung Mike Dad LTD,9.08274,7.46796
1096550270,Easi Destiny Company,9.05148,7.46533
1096550335,Jabi Lake,9.07478,7.41662
1098413781,National Primary Health Care Development Center,9.03408,7.49712
1048158718,First Bank,9.02916,7.47711
1048697060,Ecobank,9.05054,7.48158
1141792921,Kingueson Industry Group Limited,8.88134,7.23563
1136370119,Park 24 Gardens,9.10814,7.42273
1113280777,Welkrof Pharmacy,9.1487,7.33754
1141829916,Audi Showroom,9.0432,7.47521
1048158183,Willies Restaurant,9.01814,7.49214
1203112675,Anglican Church of Nigeria,9.06567,7.46265
1017593439,Ruz Medical Centre,9.01532,7.4914
1141797023,Solex Energy Service,9.07612,7.47731
1203201616,Abuja Zoological Park,9.03173,7.4731
1098416620,Nigeria Infrastructure Advisory Facility,9.0724,7.47091
1141832171,Chocolate City Group,9.0781,7.4812
1048165070,Protea Hotel,9.05082,7.50821
1048930697,Federal Court of Appeal,9.05583,7.50412
1141789928,Engineering Quarters,9.07773,7.39275
1141799284,Karmo Market,9.06831,7.36457
1141805992,Zone IV Shopping Complex,9.06401,7.47881
1048163398,Ecowas Executive Secretariat,9.04271,7.52529
1202896830,Oceanic Bank,9.07581,7.47853
1141884991,Crown Clinic,9.15085,7.32825
1203197924,Living Seed School,9.1445,7.32252
1048160331,Silverbird Galleria,9.06728,7.48509
1141789456,I. G. House,9.09205,7.49402
1113284192,Destiny Education Centre,9.02734,7.56546
1202896262,Bank Phb,9.02024,7.48967
1048163565,Ecobank,9.05181,7.48578
1141809234,Aactris FCT Agis,9.07376,7.47234
1203126540,Mobil,9.05048,7.52702
1135252415,Skye Bank,9.02838,7.58291
1203197834,Model Primary School,9.09344,7.50195
1141819669,Ap Shopping Complex,9.07809,7.49616
1048159642,Lightway Academy,9.0753,7.46585
1048163329,Asokoro Supermarket,9.03634,7.52139
1136369283,Gotsu Plaza,9.08948,7.40906
1048166718,Assemblies of God Church,9.06608,7.46752
1096543226,Bus Station,9.06882,7.44068
1193134838,Coscharis Motors LTD.,9.05169,7.47886
1141797170,Creditlink Microfinanance Bank,9.02111,7.57182
1141868431,Former Europe House,9.07945,7.50025
1141789235,Yuby Plaza,8.95832,7.54503
1136370581,Israel Plaza,9.07111,7.48812
1048167775,Diamond Medical Centre,9.01813,7.49109
1048168925,NIPCO,9.06418,7.42452
1141794100,Busy Mart Plaza,9.06562,7.43055
1142405280,Federal Civil Defence Administration Staff House,9.07815,7.46365
1141800887,Newcity Inn Hotels,9.04969,7.44639
1083947921,Dependable Pharmacy,9.07938,7.41407
1096543726,Union Bank,9.07623,7.46334
1203121926,Arsenal Guest House,9.14903,7.32363
1096546340,Minister's Hill,9.10543,7.4814
1048164692,Limi Hospital & Maternity,9.04421,7.46904
1203197838,Neighborhood Centre,9.10262,7.49306
1096545815,Suf Collections Men's Boutique,9.00386,7.46519
1144477106,Iqraa Nursery and Primary School,8.98904,7.36126
1083948812,Car Wash,9.01915,7.47942
1136368346,Raju Laundry,9.10677,7.40731
1141831338,Time Properties,9.0697,7.43123
1048157882,Petrol Station,9.05128,7.52612
1017604591,Ecobank,9.07299,7.47661
1141792637,Solid Foundation,9.15072,7.34305
1203197833,Poly Plaza,9.07249,7.47621
1096542498,Cneec Power Nigeria,9.03974,7.52922
1141817839,Redeem Christian Church of God,8.99899,7.36069
1141802761,Brussels Salon & Spa,9.0646,7.44705
1142406627,John Paul II Catholic Centre & Guest House,9.06878,7.48027
1141821731,Shenik Undies World,9.14705,7.32413
1141796394,Green Facility Limited,9.06019,7.50135
1203197627,Islamic School,9.05047,7.46331
1017593960,Gombe Liaison Office,9.08076,7.46223
1136370569,Michelin,9.09819,7.41713
1202896407,Bank Phb,9.04572,7.527
1048166140,Ideal Holiday Home,9.01513,7.49083
1136367910,212 Superstores,9.07627,7.50066
1083948786,Unity Bank,9.08491,7.49007
1083948034,Commodore Suites,9.08245,7.47997
1203121750,Foreign Affairs Quarters,9.07067,7.45421
1083948579,Blumy Guest House,9.11254,7.40438
1136367891,Pinky Berries Kiddies Shop,9.10119,7.42085
1202896315,Central Bank of Nigeria,9.04776,7.47449
1141789925,Multi Tec,9.06288,7.47046
1141789942,Aso Savings and Loans,9.03437,7.4886
1141789951,Abm Pharmacy,9.14474,7.31625
1141790002,Nstif Estate,9.1024,7.49433
1141790079,Ict Linx,9.02377,7.4833
1141790089,Ministry of Housing Quarters,9.11617,7.41917
1141790311,National Broadcasting Commission,9.04506,7.52665
1141790369,SCC Mainyard,9.11875,7.4189
1141790371,Polar Estate,9.01344,7.58966
1141790372,Boundary Plaza Hotel,9.03249,7.58092
1141790374,Dollar Pharmacy Limited,9.02957,7.58698
1141790384,Expo 1 Delux Hotel,9.03056,7.5801
1141790386,Zulhatu Ventures Limited,9.14258,7.32356
1141790390,Regent Group Co-Operate Venture,9.1411,7.32413
1141790391,Obi Benz Mechanic Workshop,9.03271,7.58449
1141790393,Chucosl,9.00892,7.57465
1141790408,Ashaka Cement Depot,8.98797,7.56622
1141790435,Jewel,9.08065,7.46209
1141790644,Sterling Bank,9.05539,7.47583
1141790664,Ppis,8.99241,7.35307
1141790667,1052 Resort,8.98219,7.36122
1141790678,Elyon Clinical Laboratory,8.98866,7.36015
1141790680,Amac Market,8.9927,7.35538
1141790685,Trade More Estate,8.95823,7.36845
1141790686,Pyakasa Market,8.96447,7.40238
1141790688,Regal Lodge,8.98451,7.36038
1141790693,Nigeria Union Teacher Guest House,8.94275,7.32965
1141790694,Procon Comprehensive Academy,8.98697,7.36024
1141790695,Silvergate Hotel,8.98349,7.35817
1141790697,Gospel Deliverance Mission,8.98893,7.35684
1141790698,Kabusa Gardens Estate,8.96622,7.43882
1141790699,Same Global Estate,8.97038,7.4406
1141790708,Edgy Footworks,8.99195,7.35834
1141790822,Katempe Estate Phase II,9.11564,7.45543
1141790830,Gayyata Hotel,9.14912,7.35195
1141790832,Paradise Guest Inn,9.14234,7.37196
1141790837,Mabod Place,9.08068,7.44793
1141790851,Trippmart Mabushi,9.0892,7.45171
1141790852,Joem Plaza,9.14168,7.36755
1141790858,Kenny Bright Interiors,9.1369,7.36829
1141790860,Computer Lap and Audio Visual,9.12893,7.37001
1141791006,Mable House,9.05586,7.46535
1141791026,Legion House,9.02904,7.4766
1141791176,Galead District Park,9.05109,7.46741
1141791284,Ecobank Churchgate-Abuja,9.04895,7.47441
1141791393,Eddybina Hotel,9.0756,7.49081
1141791404,Aso Savings Lodge,9.00927,7.48501
1141791406,Gigaxysoft Nigeria,9.07931,7.41243
1141791407,Dr. Hassan Clinic,9.08119,7.46362
1141791505,Redington Nigeria,9.10478,7.41731
1141791508,Vic Phranc House,9.03105,7.49513
1141791641,Ease Web Solutions,9.05423,7.52654
1141791697,Lake Crescent Hotel,9.06938,7.42525
1141791962,De Bapeas,9.08332,7.41459
1141791992,Pet Art Gallery,9.0335,7.46908
1141792032,Bepos Clinic and Maternity,9.02963,7.4754
1141792429,UBA,9.03501,7.48777
1141792475,Gemeze Musical Investment,9.06652,7.41186
1141792484,Dankoli Plaza,9.11697,7.40405
1141792486,Hillside School,9.11065,7.38499
1141792494,Iyanda Progeny Private School,9.11334,7.42453
1141792500,Kings Frozen Food Store,9.10457,7.40323
1141792505,Avo Health Limited,9.11605,7.42349
1141792604,Simplyswift,8.8903,7.24589
1141792606,Key Gate Security,8.86481,7.2895
1141792609,Hope Eden,8.84672,7.31088
1141792614,Buylink Ventures,8.92349,7.22121
1141792625,LGA Secretariat,8.8263,7.56937
1141792628,Diamond Plaza,9.14193,7.32116
1141792632,Bevick Integrated Technology,9.14819,7.33785
1141792659,Winnies Plaza,9.14378,7.32772
1141792663,Smartan National Mathematics Center,9.15086,7.33751
1141792667,Esu Market,9.12739,7.39109
1141792885,Assemblies of God Church,8.88147,7.22875
1141792906,Chariot International,9.13359,7.48789
1141792910,Starlet Guest Inn,9.11595,7.25681
1141792919,FCT Agency for Mass Education,8.88355,7.23453
1141792920,Aso Savings and Loans,8.88237,7.23072
1141792922,Quicklink Venture,9.13814,7.49443
1141792929,Topsolution,9.01752,7.58446
1141792939,First Forty Hotel,9.08104,7.46534
1141793074,Madilas Enterprises Limited,9.07958,7.49064
1024195613,NNPC Towers,9.05433,7.48439
1024248491,National Christian Center,9.0518,7.49375
1024252245,Abuja Velodrome,9.03981,7.45849
1024256844,National Children's Park and Zoo,9.08168,7.52514
1024267414,National Assembly,9.06857,7.5115
1024419218,Ceddi Plaza,9.05504,7.48911
1048696830,Access Bank,9.01852,7.49193
1024500552,Ministry of Defense Headquarters,9.04392,7.48199
1048159118,St Aloysius School,9.02888,7.48135
1130381346,UBA,9.0721,7.47665
1017605971,Tantalizers,9.08252,7.4679
1096545607,Life Images,9.07263,7.46845
1136369284,Laundry 101,9.08948,7.40899
1136367917,Starville Schools,9.08945,7.40975
1203121712,K Royal Restaurant,9.03216,7.47471
1136369425,Mib Plaza,9.08838,7.40817
1048165266,Community Secondary School,9.04699,7.52035
1113281427,Zenith Bank,9.13976,7.36761
1083949149,Top View Hotel,9.06296,7.45731
1136367682,Naf Conference Centre,9.08875,7.42546
1048167936,Startimes,9.02341,7.49603
1141883679,Mosun International,9.07569,7.47321
1141831652,Command Mess,9.08581,7.52684
1141820057,Naija Clicks,9.07529,7.39092
1144463535,God's Anointed School,9.02906,7.58052
1203121716,La Buvette Restaurant,9.03452,7.48946
1141832569,Afro Asian Garden,9.07125,7.47047
1141824641,Agriculture Research of Nigeria,9.06182,7.41702
1141797159,Royal Plaza,9.02836,7.58282
1142406247,Tha Konzept Technology,9.05824,7.40267
1048161689,Peemos Complex,9.02786,7.48772
1048164756,First City Monument Bank,9.04023,7.50523
1083948903,Echo Scan Service,9.04053,7.50543
1141789592,Imani Estate,9.08676,7.49061
1203121691,Ministry of Defense Quarters,9.06598,7.36844
1203121690,Impresit Staff Quarters,9.06367,7.38188
1203121692,Julius Berger Senior Staff Quarters,9.06443,7.37906
1203121693,Sel Sucre Restaurant,9.05185,7.46569
1203121696,Summer Guesthouse,9.02506,7.48163
1203121697,Games Village,9.01643,7.44086
1203121699,Spectrum Books,9.03423,7.49897
1203121700,Protea Hotel,9.04277,7.49521
1203121706,Calabar Kitchen,9.03171,7.4967
1203121709,Siman Suites,9.04314,7.49495
1203121710,Joy House Hotel N Suites,9.02353,7.47586
1203121713,National Assembly Quarters Abuja,9.01734,7.47842
1203121715,Fcoa Staff Quarters,9.02856,7.48736
1203121714,CBN Quarters,9.03068,7.49314
1203121717,Rahman Guesthouse,9.02166,7.48458
1203121718,Vines Hotel,9.0195,7.4742
1203121719,Malvern Suites,9.02087,7.48926
1203121722,Big Bites Fast Food,9.04669,7.52701
1203121723,Mugadishu Barracks,9.04659,7.53663
1203121725,Water Sewage Life Camp,9.07392,7.39344
1203121734,Police NPF Barracks,9.06431,7.42237
1203121737,CBN Quarters,9.07521,7.45123
1203121739,Santono Bed and Breakfast,9.06822,7.45925
1203121741,Nackovad Hotel,9.0563,7.46619
1203121744,Milennium Hotel,9.06547,7.45381
1203121748,All Saints House,9.05966,7.46941
1203121752,Amso Bed and Breakfast,9.07205,7.45831
1203121753,Capade Lounge Abuja,9.08208,7.46696
1203121755,Peace Court Hotel,9.05626,7.46619
1203121759,Sincere Guesthouse,9.11063,7.40269
1203121763,The Great Wall Restaurant,9.09205,7.49906
1203121767,Novelle City Lodge,9.07546,7.47207
1203121768,Big Mama's Kitchen,9.06286,7.47538
1203121770,Fadama 3 House,9.08091,7.47691
1203121772,Bolingo Hotel,9.06963,7.48275
1203121781,Yakubu Gowon Barracks,9.0899,7.5198
1203121782,Niger Barracks,9.07638,7.52186
1203121794,Barton Guest Inn and Basement Bar,9.14943,7.32393
1203121882,PW Quarters,9.06575,7.36715
1203121900,Executive Suite Hotel,9.04076,7.52571
1203121908,Wuse Guest Inn,9.07007,7.46283
1203121912,Food Crafters Restaurant,9.0754,7.46395
1203121924,Musada Suite Hotel,9.0691,7.4824
1203122839,Boti Lodge,9.04132,7.49639
1203126123,Abba Petroleum Nigeria Filng Stn,9.08115,7.2137
1203126125,Major Filling Station,9.09544,7.21808
1203126126,Mimi Resorts and Garden,9.11282,7.22144
1203126127,TEXACO,8.99104,7.39696
1203126134,Papillon Suites,9.02206,7.48555
1203126135,Onyx Hotel,9.03815,7.49709
1203126138,Conoil,9.03768,7.48969
1203126139,Divine Kitchen,9.02238,7.48566
1203126140,Oando,9.0452,7.46265
1203126146,CBN Quarters,9.02398,7.48115
1203126147,Police NPF Quarters,9.04517,7.50406
1203126148,Eunice Restaurant,9.04279,7.49485
1203126150,Rita Lori Hotels Jere Street,9.02635,7.48653
1203126151,Ritman Suites,9.03346,7.48934
1203126152,TEXACO,9.05084,7.52784
1203126161,Filling Station,9.09144,7.41381
1203126182,AP,9.08183,7.46505
1203126184,Eterna Castrol Petrol Station,9.06719,7.43747
1203126185,TOTAL,9.06453,7.46908
1203126186,TOTAL,9.05347,7.4846
1203126188,Oando,9.06354,7.47585
1203126195,Dolphin Restaurant,9.07321,7.47624
1203126204,Rank Bigfilling Station,9.02807,7.58126
1203126207,Maitama Guesthouse,9.08815,7.49705
1203126252,NNPC,9.14213,7.32279
1203126254,White Safari Hotel,9.14443,7.32351
1203126269,TOTAL,9.04455,7.19232
1203126277,TOTAL,9.09656,7.21799
1203126293,AP,9.01168,7.47373
1203126297,TEXACO,9.05102,7.52639
1203126303,Villa U Hotel,9.08312,7.4655
1203126314,Russel Suites,9.06693,7.46941
1203126321,Azman Filling Station,9.02773,7.57864
1048163122,Shopping Centre,9.03775,7.48349
1141831737,GTBank,9.08328,7.50161
1202896704,Baybos Home School,9.06031,7.47419
1144441711,Overcomers Schools,9.03267,7.58903
1142402366,Maknins Data Paints & Computer Institiute,9.05262,7.50883
1083948920,Aneico Hotel,9.07185,7.43933
1141798143,Etsu Palace Dawaki,9.12739,7.39109
1202896759,Intercontinental Bank,9.05435,7.49118
1096547070,Team,9.0393,7.5024
1048698164,Access Bank,9.02329,7.47572
1083950115,Ushir Laundry Service,9.09284,7.41469
1048158457,Burkina Faso Embassy,9.07729,7.48585
1203118893,Bayelsa Guesthouse,9.0655,7.49771
1113284712,Envoy Hotel,9.01831,7.56236
1141806047,Embassy Equatorial Guinea,9.07973,7.46577
1203197723,Glory Mojec Plaza,9.08542,7.4664
1083948918,Dankuchi Plaza,9.03966,7.50488
1142402626,Nigerian Social Insurance Trust Fund,9.04565,7.48477
1142410417,Federal House of Representatives-Owerri,9.08421,7.41522
1144495539,Celestial Church of Christ,9.03828,7.48153
1048930366,First Bank,9.02814,7.49307
1048930651,A. Y. A Park,9.04995,7.5249
1048930705,Nigeria Stock Exchange,9.05287,7.4956
1048930756,Loyola Jesuit College,8.91916,7.56278
1048930832,American Int. School,9.02254,7.45931
1048930835,Commerce Plaza,9.0209,7.47184
1048930946,Ibb Golf Club,9.0822,7.50545
1048930963,Dantata Quaters,9.08975,7.47653
1048930974,Federal Secretariat,9.06142,7.49805
1048930977,Velodrome,9.03982,7.45827
1048931078,Nexim Plaza,9.06282,7.49427
1048931156,National Stadium Indoor Hall,9.03064,7.45207
1048162242,Ritz Hotel,9.03402,7.48665
1141802615,Lomonosine,9.11113,7.22028
1203121708,NNPC Quarters,9.04265,7.50157
1048164349,Blakes,9.02788,7.49072
1144457669,Fountain Primary School,9.08273,7.41374
1203126164,Mummy's Guesthouse,9.06826,7.44936
1141807934,National Agency for Food,9.03385,7.47447
1136369048,Maxirest Pharmacy,9.10583,7.42337
1142411007,Nigeria Singapore Friendship,9.04805,7.49043
1141792469,Divine Estate,9.06313,7.42727
1113285194,Nyanya Market,9.02507,7.57014
1130381855,Credit Link Microfinance,9.02087,7.57191
1144663199,Aso Rock Women Association Nursery and Primary,9.06457,7.47809
1017594104,NP,9.05294,7.50676
1136368072,Dansaravi Plaza,9.06691,7.47342
1203197628,American International School,9.0232,7.45866
1141799918,Mac-Fela Nigeria Limited,9.09439,7.41567
1141790473,Lake View Guest House,9.07558,7.41648
1048160864,National Hospital,9.0389,7.46349
1136367892,Bagije Plaza,9.10121,7.4209
1144501675,Foursquare Gospel Church,9.1461,7.31481
1113315376,Global College,9.07572,7.43017
1083948927,Spring View Hotel,9.06579,7.48056
1144473259,Professional Home Tutoring Services,8.9998,7.44941
1083948816,Royal Falls,9.05884,7.45814
1048160746,Orbit Gardens,9.08768,7.48347
1113315931,Education Centre,8.99871,7.57137
1141830902,Tswanya Complex,9.03124,7.49731
1017597113,Embassy Belgium,9.09163,7.48956
1203197862,Fyne International School,9.02776,7.57898
1048160556,Sterling Bank,9.0728,7.47585
1048164990,Union Bank,9.04465,7.48521
1136368249,Cafe Bon,9.05482,7.48925
1048160323,PPFN,9.06539,7.47159
1193134471,Coscharis Motors LTD.,9.05169,7.47886
1141796293,Oil and Gas Free Zone Authority,9.101,7.49677
1113276642,Collette Collection,9.15087,7.33085
1113276687,Nasara Pharmacy,9.14249,7.35012
1113276690,Solid Base Day Care,9.14209,7.35079
1113276759,Xerox Centre,9.06338,7.45648
1113276762,85 Restaurant & Bar,9.07291,7.46799
1113276767,Chloe's Cup Cake Haven,9.07084,7.487
1113276773,Adisa Plaza,9.00358,7.47218
1113278186,Checkers Bar & Restaurant,9.03155,7.48186
1113278251,TOTAL,9.11266,7.22362
1113278270,Redeemed Christian Church of God,9.15017,7.3299
1113278272,Jevana Pharmacy,9.14999,7.32947
1113278273,Corcin Church,9.14936,7.32749
1113280776,King Gerom Nursery School,9.1487,7.33754
1113280818,PHCN,9.01263,7.56269
1113280820,Eagle Vision Centre,9.01306,7.5638
1113280824,Redeemed Christian Church of God,9.0129,7.56338
1113280886,Gaskiya Pharmacy,9.02897,7.5687
1113280992,Christ Apostolic Church,9.15017,7.33118
1113280993,TOTAL,9.1506,7.33069
1113280994,Car Wash,9.14954,7.33165
1113281002,Monotechy Guest House,9.14908,7.32661
1113281004,Eckankar,9.14879,7.32576
1113281193,Mopol Base,9.03228,7.57522
1113281194,Oasis Grand Resort,9.03263,7.57503
1113281320,Alibu Clinic and Maternity,9.02609,7.57021
1113281321,Redeemed Christian Church of God,9.02663,7.56992
1113281326,Senior Naval Officers Quarters,9.1445,7.32618
1113281372,ND Superstore,8.87964,7.23074
1113281373,Inec Office,8.87953,7.23364
1113281374,Kuje Police Station,8.87925,7.23592
1113281376,Cell Pharmacy,8.87967,7.23107
1113281378,Samsung Mobile,8.87971,7.23107
1113281382,Jerab Hospital,8.87921,7.23656
1113281385,Pharmacy,9.00644,7.56387
1113281412,Redeemed Christian Church of God,9.14305,7.35417
1113281418,Uncle Joe Supermarket,9.15024,7.35476
1113281419,Solid Base International Academy,9.15008,7.35485
1113281420,Ave Maria Daycare Centre,9.1451,7.35514
1113281423,Trade Sys Photoshop,9.14334,7.35429
1113281425,Sofa Lounge,9.06952,7.48013
1113281440,Queen Esther Nursery Primary,8.99726,7.46464
1113281461,School,9.03008,7.57178
1113281462,Noble Scan,9.03034,7.57216
1113281465,Meb Extra Well Pharmacy & Stores,9.01872,7.49387
1113281466,Timaden Boutique,9.0189,7.49365
1113281468,Abson Pharmacy,9.01874,7.49385
1113281473,Bec Education Consult,9.01961,7.49269
1113281507,Brama Supermarket,9.06368,7.42282
1113281519,Customary Court,9.00901,7.56669
1113281606,Chinese Primary School,9.01802,7.5728
1113281608,Phina Eatery,9.01928,7.57253
1113281609,Everyday Scan Services,9.02073,7.57197
1113281613,Celestial Church,9.01332,7.57397
1113281614,GMD Plaza,9.01977,7.57235
1113281615,Rano Petrol Station,9.01851,7.57264
1113281619,Ben Cash Plaza,9.02099,7.57187
1113281621,Karu Mosque,9.0109,7.574
1113281676,Miracle Seed Clinic & Maternity,9.14423,7.32544
1113281690,Cedarcrest,9.02361,7.49578
1113283966,Petrol Station,9.0196,7.56211
1113284016,Airwave Hotels,9.07011,7.48238
1113284107,Praise Fountain School,9.14733,7.32794
1113284135,Prixair Hotel,9.09003,7.47418
1113284196,Redeemed Christian Church of God,9.02811,7.56504
1113284209,Accord Hotel & Resort,9.14338,7.34855
1113284229,Christ Apostolic Church,9.14831,7.34205
1113284232,Revival Group Church,9.15015,7.33794
1113284327,Uk Visa Application Centre,9.07155,7.48973
1113284330,Benue Cement Company Office,9.07076,7.49234
1113284332,Uk Center,9.07109,7.48987
1113284339,Aubit Pharmacy,9.0258,7.56622
1113284353,Labrex Plaza,9.06836,7.43794
1113284357,Flint Studio,9.06845,7.43847
1113284368,Dayspring College,9.14515,7.34415
1113284374,Paxs Pharmacy,9.07299,7.4761
1113284412,Christ Gospel Mission,9.00804,7.56476
1113284467,Citizen Guest House,9.14409,7.3302
1113284477,Capitol Fast Food Restaurant,9.06343,7.45897
1113284478,Bethel Baptist Church,9.06349,7.45899
1113284480,Christian Pilgrims Welfare Board,9.06336,7.45894
1113284481,Legal Accessories Warehouse,9.06275,7.45801
1113284504,Peacefield Private School,9.0828,7.44802
1113284511,Biuler Academy,9.1466,7.324
1113284512,Eatery,9.14573,7.32372
1113284513,Mouka Foam,9.1452,7.32363
1113284544,May Grey Hotel,9.03124,7.57004
1113284545,Beeso Pharmacy,9.03191,7.57136
1113284546,Emmanuel Baptist Church,9.03044,7.56867
1113284585,Government School,9.14896,7.34731
1113284596,Just Plan B Restaurant,9.14503,7.33824
1113284600,National Evangelical Mission,9.14549,7.34246
1113284621,Abuja Comprehensive College,9.03488,7.57371
1113284623,NKST Church,9.03467,7.57383
1113284663,Karu Shopping Complex,9.01332,7.56767
1113284664,Police Station,9.01417,7.56661
1113284665,Areto Pharmacy,9.01407,7.5674
1113284666,Karu Motor Park,9.01433,7.56694
1113284672,Venofam Pharmacy,9.012,7.56793
1113284701,Mobil,9.01893,7.56222
1113284702,Munavic Plaza,9.0144,7.56359
1113284705,Karu Mosque,9.01491,7.56334
1113284707,Green Apple Eatery,9.01425,7.56366
1113284708,Laundry Service,9.01911,7.56219
1113284709,Mtn Office,9.01396,7.56375
1113284710,Tito Restaurant,9.01433,7.56357
1113284715,Mazfallah Shopping Centre,9.01357,7.56394
1113284719,Mr Bigg's,9.01401,7.56373
1113284720,Salmax Pharmacy,9.01625,7.56273
1113284722,Village Kitchen,9.01396,7.56375
1113284866,Petrock Guest House,8.98223,7.37529
1113284867,Building Materials Yard,8.98554,7.37524
1113284914,Aftermat Supermarket,9.0181,7.4922
1113284938,IC Pharmacy,9.08456,7.47102
1113284945,Evergreen Sports Park,9.07784,7.43207
1113284948,Express Hospital,9.14508,7.31665
1113284978,Kuriftu Plaza,9.0601,7.41748
1113284979,Unity Bank,9.06031,7.41903
1113285048,Atampa Couture,9.08027,7.47809
1113285050,Vinecare Nursery & Primary School,8.99831,7.4656
1113285132,New Scope International School,9.15043,7.32657
1113285185,Cupid Suites,9.14375,7.32814
1113309866,Inec Office,9.01257,7.56437
1113310536,Prohealth Hmo,9.0725,7.49065
1113311517,Gateway Christian Church,9.1433,7.32087
1113311536,Plaza,9.06518,7.45582
1113311881,Eava Hospital,9.01017,7.57452
1113313482,Garki Model Market,9.02065,7.49103
1113313630,Aktc Transport,9.06856,7.43323
1113313726,Ade Akodu Primary School,9.14679,7.34272
1113314712,Latter Day Saints Church,8.99215,7.37265
1113314713,Blessed Precious Academy,8.99229,7.37261
1113314718,Auto Repair,8.99735,7.36948
1113314724,Sheperd Academy,8.98484,7.36263
1113314728,FRSC Office,8.98287,7.36267
